{"type": "FeatureCollection", "features": [{"geometry": {"type": "Point", "coordinates": [121.137352, 14.5659958]}, "type": "Feature", "properties": {"source_url": "http://www.openstreetmap.org/node/2694351354", "what3words": "chat.pints.mankind", "upstream": "openstreetmap\u00b6n2694351354", "name": "20-1 Barangay Health Station", "completeness": "35.29%", "uuid": "e32de8829d524d60b40a55a2029b765f", "date_modified": "2015-11-17T09:43:57.838Z", "source": "OpenStreetMap", "version": 2, "type": "clinic"}}, {"geometry": {"type": "Point", "coordinates": [123.943115, 10.3379301]}, "type": "Feature", "properties": {"source_url": "http://www.openstreetmap.org/node/2141277725", "what3words": "shadow.vipers.modest", "upstream": "openstreetmap\u00b6n2141277725", "name": "24hr Birthing Center", "completeness": "35.29%", "uuid": "116f9d20caa946ea969796092d79b0dc", "date_modified": "2015-11-17T09:43:57.838Z", "source": "OpenStreetMap", "version": 2, "type": "clinic"}}, {"geometry": {"type": "Point", "coordinates": [125.9791335, 8.5078074]}, "type": "Feature", "properties": {"source_url": "http://www.openstreetmap.org/node/4020825463", "what3words": "caravan.flint.evicted", "upstream": "OpenStreetMap\u00b6n4020825463", "name": "4m ultrasound", "completeness": "29.41%", "uuid": "6cbffaf7de0b49bd81eb99b58d291206", "date_modified": "2016-02-26T15:58:36Z", "source": "OpenStreetMap", "version": 2, "type": "clinic"}}, {"geometry": {"type": "Point", "coordinates": [124.566082183806, 12.06807845]}, "type": "Feature", "properties": {"source_url": "http://www.openstreetmap.org/way/317862375", "what3words": "wildest.progress.chirped", "upstream": "openstreetmap\u00b6w317862375", "name": "7thDayAdventistSanitariumHospital", "completeness": "35.29%", "uuid": "3225787941ba40e7ab8c81514ec1a16f", "date_modified": "2015-12-11T10:51:22.924Z", "source": "OpenStreetMap", "version": 2, "type": "hospital"}}, {"geometry": {"type": "Point", "coordinates": [120.23383295, 14.8796749]}, "type": "Feature", "properties": {"source_url": "http://www.openstreetmap.org/way/266959244", "what3words": "chug.redhead.quickness", "upstream": "openstreetmap\u00b6w266959244", "name": "81752", "completeness": "35.29%", "uuid": "ceaf253f77044fd28035a65bdb91ed14", "date_modified": "2015-12-11T10:51:22.924Z", "source": "OpenStreetMap", "version": 2, "type": "clinic"}}, {"geometry": {"type": "Point", "coordinates": [120.9951921, 14.6985432]}, "type": "Feature", "properties": {"source_url": "http://www.openstreetmap.org/node/4574882595", "what3words": "dinosaur.probably.rotation", "upstream": "OpenStreetMap\u00b6n4574882595", "name": "98 msa agri, 98 msa agri", "completeness": "29.41%", "uuid": "67da3629c4dc44ba9e19882412868c66", "date_modified": "2016-12-27T11:18:43Z", "source": "OpenStreetMap", "version": 2, "type": "clinic"}}, {"geometry": {"type": "Point", "coordinates": [125.1340666, 8.1492865]}, "type": "Feature", "properties": {"source_url": "http://www.openstreetmap.org/node/4496283700", "what3words": "incident.centigrade.impactful", "upstream": "OpenStreetMap\u00b6n4496283700", "name": "A and K DrugTesting Center, A and K DrugTesting Center", "completeness": "35.29%", "uuid": "6f422836aed44c87827acc94e95bfbb1", "date_modified": "2016-11-12T06:00:13Z", "source": "OpenStreetMap", "version": 2, "physical-address": "San Victores", "type": "clinic"}}, {"geometry": {"type": "Point", "coordinates": [120.858219804191, 15.25059275]}, "type": "Feature", "properties": {"source_url": "http://www.openstreetmap.org/way/378902184", "what3words": "disordered.slipper.clapped", "upstream": "openstreetmap\u00b6w378902184", "name": "A, Duque Memorial Hospital", "completeness": "35.29%", "uuid": "669516aa8f624739b62453009b0a60f2", "date_modified": "2015-12-11T10:51:22.924Z", "source": "OpenStreetMap", "version": 2, "type": "hospital"}}, {"geometry": {"type": "Point", "coordinates": [120.9575002, 14.6876655]}, "type": "Feature", "properties": {"source_url": "http://www.openstreetmap.org/node/255069888", "what3words": "bucks.shuffle.silks", "upstream": "openstreetmap\u00b6n255069888", "name": "A. P. Cruz Community Hospital", "completeness": "35.29%", "uuid": "6a75ad5ee8364423a7d9f38a7fe7677c", "date_modified": "2015-11-17T09:43:57.838Z", "source": "OpenStreetMap", "version": 2, "type": "hospital"}}, {"geometry": {"type": "Point", "coordinates": [121.043441, 14.7303]}, "type": "Feature", "properties": {"source_url": "http://www.openstreetmap.org/node/255060717", "what3words": "rate.reading.leafing", "upstream": "openstreetmap\u00b6n255060717", "name": "A. R. Bautista Children And General Hospital", "completeness": "35.29%", "uuid": "783dfd3d950b4b7b88ea5cb6006df3b4", "date_modified": "2015-11-17T09:43:57.838Z", "source": "OpenStreetMap", "version": 2, "type": "hospital"}}, {"geometry": {"type": "Point", "coordinates": [121.0239457, 14.5889239]}, "type": "Feature", "properties": {"source_url": "http://www.openstreetmap.org/node/4445659743", "what3words": "locator.resist.shaver", "upstream": "OpenStreetMap\u00b6n4445659743", "name": "A.C. Lim Polyclinic", "completeness": "35.29%", "uuid": "2d1a1691e60a40cbbe3b07d1a4a446e5", "date_modified": "2016-10-13T11:38:46Z", "source": "OpenStreetMap", "version": 2, "physical-address": "123", "type": "clinic"}}, {"geometry": {"type": "Point", "coordinates": [121.037660337983, 14.2190679]}, "type": "Feature", "properties": {"source_url": "http://www.openstreetmap.org/way/230280442", "what3words": "mistrusted.vindicates.passport", "upstream": "openstreetmap\u00b6w230280442", "name": "A.U.P. Health Service", "completeness": "35.29%", "uuid": "022b2832edb949b8a6e96006587afdbe", "date_modified": "2015-12-11T10:51:22.924Z", "source": "OpenStreetMap", "version": 2, "type": "hospital"}}, {"geometry": {"type": "Point", "coordinates": [126.0867382, 7.6730962]}, "type": "Feature", "properties": {"source_url": "http://www.openstreetmap.org/node/4576708791", "what3words": "unfounded.courted.usages", "upstream": "OpenStreetMap\u00b6n4576708791", "name": "AACUACOR, AACUACOR", "completeness": "29.41%", "uuid": "2a8cb1225c7a43f88d489c2263f86bcf", "date_modified": "2016-12-28T07:08:14Z", "source": "OpenStreetMap", "version": 2, "type": "clinic"}}, {"geometry": {"type": "Point", "coordinates": [120.9831199, 14.6264006]}, "type": "Feature", "properties": {"source_url": "http://www.openstreetmap.org/node/3101506622", "what3words": "journey.chart.photos", "upstream": "openstreetmap\u00b6n3101506622", "name": "ABC Clinic", "completeness": "35.29%", "uuid": "e8b170767861465e81725ee88d7289a4", "date_modified": "2015-11-17T09:43:57.838Z", "source": "OpenStreetMap", "version": 2, "type": "clinic"}}, {"geometry": {"type": "Point", "coordinates": [122.540258205784, 10.74387405]}, "type": "Feature", "properties": {"source_url": "http://www.openstreetmap.org/way/452880349", "what3words": "huddle.seaside.large", "upstream": "OpenStreetMap\u00b6w452880349", "name": "ACE Medical Center Iloilo", "completeness": "29.41%", "uuid": "fe8384e92cb64b5280f721324518b6f5", "date_modified": "2016-11-12T15:51:26Z", "source": "OpenStreetMap", "version": 2, "type": "hospital"}}, {"geometry": {"type": "Point", "coordinates": [120.9439168, 14.3163882]}, "type": "Feature", "properties": {"source_url": "http://www.openstreetmap.org/node/4202133877", "what3words": "loaders.haunts.nuns", "upstream": "OpenStreetMap\u00b6n4202133877", "name": "ADB Maternity and Lying Inn", "completeness": "29.41%", "uuid": "781eb0a07f504eb79c12e35ac0139c3d", "date_modified": "2016-05-23T12:33:14Z", "source": "OpenStreetMap", "version": 2, "type": "clinic"}}, {"geometry": {"type": "Point", "coordinates": [121.084352, 14.6866662]}, "type": "Feature", "properties": {"source_url": "http://www.openstreetmap.org/node/2594779317", "what3words": "charcoal.hairpin.lied", "upstream": "openstreetmap\u00b6n2594779317", "name": "AF Holy Spirit Clinic", "completeness": "35.29%", "uuid": "9507ac148ed948999d8c3d12d986baad", "date_modified": "2015-11-17T09:43:57.838Z", "source": "OpenStreetMap", "version": 2, "type": "hospital"}}, {"geometry": {"type": "Point", "coordinates": [120.5321232, 15.1820622]}, "type": "Feature", "properties": {"source_url": "http://www.openstreetmap.org/node/806505825", "what3words": "inch.devotion.refers", "upstream": "openstreetmap\u00b6n806505825", "name": "AFP Hospital Center", "completeness": "35.29%", "uuid": "af1baa21fa2841729511ca0620a94642", "date_modified": "2015-11-17T09:43:57.838Z", "source": "OpenStreetMap", "version": 2, "type": "hospital"}}, {"geometry": {"type": "Point", "coordinates": [120.9575383, 14.3297723]}, "type": "Feature", "properties": {"source_url": "http://www.openstreetmap.org/node/3785714613", "what3words": "moats.visitor.blurred", "upstream": "OpenStreetMap\u00b6n3785714613", "name": "AL Santos Medical clinic", "completeness": "29.41%", "uuid": "6fcdbc2672f449e58d8c601ae7ab67c5", "date_modified": "2015-10-14T05:14:51Z", "source": "OpenStreetMap", "version": 2, "type": "hospital"}}, {"geometry": {"type": "Point", "coordinates": [121.054697, 14.6110085]}, "type": "Feature", "properties": {"source_url": "http://www.openstreetmap.org/node/4460972899", "what3words": "tweaked.badge.manage", "upstream": "OpenStreetMap\u00b6n4460972899", "name": "AMGB drug testing center, AMGB drug testing center", "completeness": "29.41%", "uuid": "8c90090e58264c989f099ab1074648ff", "date_modified": "2016-10-23T22:08:00Z", "source": "OpenStreetMap", "version": 2, "type": "clinic"}}, {"geometry": {"type": "Point", "coordinates": [123.9514784, 10.3347424]}, "type": "Feature", "properties": {"source_url": "http://www.openstreetmap.org/node/4362565390", "what3words": "renamed.spurned.youngest", "upstream": "OpenStreetMap\u00b6n4362565390", "name": "AMOSUP SEAMENS HOSPITAL", "completeness": "29.41%", "uuid": "1f5a9720e9f5427988239cd3e193428d", "date_modified": "2016-08-24T15:23:51Z", "source": "OpenStreetMap", "version": 2, "type": "hospital"}}, {"geometry": {"type": "Point", "coordinates": [123.9514505, 10.3348199]}, "type": "Feature", "properties": {"source_url": "http://www.openstreetmap.org/node/4269890293", "what3words": "error.pump.emblem", "upstream": "OpenStreetMap\u00b6n4269890293", "name": "AMOSUP Seaman's Hospital", "completeness": "35.29%", "uuid": "070f7f6e55ac4635be2c0ec1aa7005a7", "date_modified": "2016-06-28T14:27:39Z", "source": "OpenStreetMap", "version": 2, "physical-address": "Camino Vicinal Street", "type": "hospital"}}, {"geometry": {"type": "Point", "coordinates": [121.1857914, 14.578262]}, "type": "Feature", "properties": {"source_url": "http://www.openstreetmap.org/node/4361119893", "what3words": "capers.trusts.patch", "upstream": "OpenStreetMap\u00b6n4361119893", "name": "ANTIPOLO CITY COMMUNITY HOSPITAL ANNEX", "completeness": "29.41%", "uuid": "09233efd41b746f4b846f546d30d0e15", "date_modified": "2016-08-22T07:04:13Z", "source": "OpenStreetMap", "version": 2, "type": "hospital"}}, {"geometry": {"type": "Point", "coordinates": [125.0081102, 11.1781966]}, "type": "Feature", "properties": {"source_url": "http://www.openstreetmap.org/node/3529918448", "what3words": "dangled.brushwood.skydivers", "upstream": "openstreetmap\u00b6n3529918448", "name": "ARAW", "completeness": "35.29%", "uuid": "50d40db86f42485e85490fb1edd85cbe", "date_modified": "2015-11-17T09:43:57.838Z", "source": "OpenStreetMap", "version": 2, "type": "hospital"}}, {"geometry": {"type": "Point", "coordinates": [120.9838486, 14.656482]}, "type": "Feature", "properties": {"source_url": "http://www.openstreetmap.org/node/2303693406", "what3words": "widest.mammals.learning", "upstream": "openstreetmap\u00b6n2303693406", "name": "ARO Aesthetic & Medical Center", "completeness": "35.29%", "uuid": "8833e060eb67445282085e250b41c50e", "date_modified": "2015-11-17T09:43:57.838Z", "source": "OpenStreetMap", "version": 2, "type": "hospital"}}, {"geometry": {"type": "Point", "coordinates": [123.735854769903, 13.33000195]}, "type": "Feature", "properties": {"source_url": "http://www.openstreetmap.org/way/330503423", "what3words": "snowman.infringes.fence", "upstream": "openstreetmap\u00b6w330503423", "name": "Abandoned Andres-Maria Rios Memorial", "completeness": "35.29%", "uuid": "4e07680036ae40168f36e2b4b82d6f5c", "date_modified": "2015-12-11T10:51:22.924Z", "source": "OpenStreetMap", "version": 2, "type": "hospital"}}, {"geometry": {"type": "Point", "coordinates": [125.092109841478, 7.9112659]}, "type": "Feature", "properties": {"source_url": "http://www.openstreetmap.org/way/171348867", "what3words": "earthiness.stripes.undervalued", "upstream": "openstreetmap\u00b6w171348867", "name": "Abella Midway Hospital", "completeness": "35.29%", "uuid": "2e19a7eeefe046b0935f1ff18b0d9e4f", "date_modified": "2015-12-11T10:51:22.924Z", "source": "OpenStreetMap", "version": 2, "type": "hospital"}}, {"geometry": {"type": "Point", "coordinates": [118.549510043628, 9.4343901]}, "type": "Feature", "properties": {"source_url": "http://www.openstreetmap.org/way/274478791", "what3words": "unflagging.bookmakers.rewind", "upstream": "openstreetmap\u00b6w274478791", "name": "Aborlan Medicare Hospital", "completeness": "35.29%", "uuid": "fa42d1c18f174a9682216febe81e43f0", "date_modified": "2015-12-11T10:51:22.924Z", "source": "OpenStreetMap", "version": 2, "type": "hospital"}}, {"geometry": {"type": "Point", "coordinates": [120.958801, 14.659661]}, "type": "Feature", "properties": {"source_url": "http://www.openstreetmap.org/node/255059114", "what3words": "vertical.roofs.royally", "upstream": "openstreetmap\u00b6n255059114", "name": "Abquillan Clinic", "completeness": "35.29%", "uuid": "0315062d2348435cb59031eaf742c4d9", "date_modified": "2015-11-17T09:43:57.838Z", "source": "OpenStreetMap", "version": 2, "type": "hospital"}}, {"geometry": {"type": "Point", "coordinates": [120.7264467, 13.4449126]}, "type": "Feature", "properties": {"source_url": "http://www.openstreetmap.org/node/3207782613", "what3words": "detritus.fantastical.contorts", "upstream": "openstreetmap\u00b6n3207782613", "name": "Abra de Ilog Community Hospital", "completeness": "35.29%", "uuid": "1144483d7c334f5cb55a8356e2e4d608", "date_modified": "2015-11-17T09:43:57.838Z", "source": "OpenStreetMap", "version": 2, "type": "hospital"}}, {"geometry": {"type": "Point", "coordinates": [120.726624832467, 13.4450646]}, "type": "Feature", "properties": {"source_url": "http://www.openstreetmap.org/way/423583302", "what3words": "examination.retrain.ultimate", "upstream": "OpenStreetMap\u00b6w423583302", "name": "Abra de Ilog Community Hospital", "completeness": "29.41%", "uuid": "fff45e7328a44279b758b75c7d2c7b7b", "date_modified": "2016-08-28T13:03:50Z", "source": "OpenStreetMap", "version": 2, "type": "hospital"}}, {"geometry": {"type": "Point", "coordinates": [120.5353993, 14.7213612]}, "type": "Feature", "properties": {"source_url": "http://www.openstreetmap.org/node/1367547424", "what3words": "equitably.enemies.embraced", "upstream": "openstreetmap\u00b6n1367547424", "name": "Abucay health Center", "completeness": "35.29%", "uuid": "165de84c7ebb421e95177d099d581254", "date_modified": "2015-11-17T09:43:57.838Z", "source": "OpenStreetMap", "version": 2, "type": "hospital"}}, {"geometry": {"type": "Point", "coordinates": [125.003211661268, 10.75935815]}, "type": "Feature", "properties": {"source_url": "http://www.openstreetmap.org/way/197880865", "what3words": "indiscreet.unfunded.lavishes", "upstream": "openstreetmap\u00b6w197880865", "name": "Abuyog District Hospital", "completeness": "41.18%", "uuid": "36846ae99f314db5bc3b296471934e9f", "date_modified": "2015-12-11T10:51:22.924Z", "source": "OpenStreetMap", "version": 2, "physical-address": "Abuyog", "type": "hospital"}}, {"geometry": {"type": "Point", "coordinates": [120.379975279049, 17.5570321]}, "type": "Feature", "properties": {"source_url": "http://www.openstreetmap.org/way/267218040", "what3words": "uninviting.cheesy.homes", "upstream": "openstreetmap\u00b6w267218040", "name": "Acas Clinic and Hospital", "completeness": "35.29%", "uuid": "691c88c3345940f5a4b8ffad48900a14", "date_modified": "2015-12-11T10:51:22.924Z", "source": "OpenStreetMap", "version": 2, "type": "hospital"}}, {"geometry": {"type": "Point", "coordinates": [120.7974809, 14.875114]}, "type": "Feature", "properties": {"source_url": "http://www.openstreetmap.org/node/3044684716", "what3words": "steams.start.icicles", "upstream": "openstreetmap\u00b6n3044684716", "name": "Accucare Diagnostic Center", "completeness": "35.29%", "uuid": "02e7cea8aa5e43e9937d1cf2dbf78d96", "date_modified": "2015-11-17T09:43:57.838Z", "source": "OpenStreetMap", "version": 2, "type": "hospital"}}, {"geometry": {"type": "Point", "coordinates": [120.9788187, 14.4491321]}, "type": "Feature", "properties": {"source_url": "http://www.openstreetmap.org/node/1754910608", "what3words": "founders.sporting.voices", "upstream": "openstreetmap\u00b6n1754910608", "name": "Accuhealth Diagnostics", "completeness": "35.29%", "uuid": "1bb3b13b9cc04a6aa30baa49ade5c8e1", "date_modified": "2015-11-17T09:43:57.838Z", "source": "OpenStreetMap", "version": 2, "type": "hospital"}}, {"geometry": {"type": "Point", "coordinates": [121.075778, 14.7048623]}, "type": "Feature", "properties": {"source_url": "http://www.openstreetmap.org/node/4275785331", "what3words": "coaching.potato.unwell", "upstream": "OpenStreetMap\u00b6n4275785331", "name": "Ace Diagnostics", "completeness": "35.29%", "uuid": "7370cd82d1f941da99c1c0eb1cff2c0c", "date_modified": "2016-07-01T15:24:03Z", "source": "OpenStreetMap", "version": 2, "physical-address": "Commonwealth Avenue", "type": "clinic"}}, {"geometry": {"type": "Point", "coordinates": [121.170718975073, 14.5818337]}, "type": "Feature", "properties": {"source_url": "http://www.openstreetmap.org/way/114368100", "what3words": "cobbled.zebra.required", "upstream": "openstreetmap\u00b6w114368100", "name": "Acop Medical Clinic", "completeness": "35.29%", "uuid": "e2d3bd56fd1c4b358758a1110c4b82d5", "date_modified": "2015-12-11T10:51:22.924Z", "source": "OpenStreetMap", "version": 2, "type": "hospital"}}, {"geometry": {"type": "Point", "coordinates": [121.0016426, 14.5378894]}, "type": "Feature", "properties": {"source_url": "http://www.openstreetmap.org/node/3545965275", "what3words": "nurses.draining.digs", "upstream": "openstreetmap\u00b6n3545965275", "name": "Acosta", "completeness": "35.29%", "uuid": "2d10d85b61e542e39349d96245de6cd8", "date_modified": "2015-11-17T09:43:57.838Z", "source": "OpenStreetMap", "version": 2, "type": "clinic"}}, {"geometry": {"type": "Point", "coordinates": [122.5681383, 10.7079825]}, "type": "Feature", "properties": {"source_url": "http://www.openstreetmap.org/node/2280504649", "what3words": "glorious.edgy.varieties", "upstream": "openstreetmap\u00b6n2280504649", "name": "Active Care EMS", "completeness": "35.29%", "uuid": "3a89fdcf7d3a45c68f8eefa636e4960b", "date_modified": "2015-11-17T09:43:57.838Z", "source": "OpenStreetMap", "version": 2, "type": "hospital"}}, {"geometry": {"type": "Point", "coordinates": [121.0335119, 14.5920052]}, "type": "Feature", "properties": {"source_url": "http://www.openstreetmap.org/node/4401967180", "what3words": "tone.mammoth.frozen", "upstream": "OpenStreetMap\u00b6n4401967180", "name": "Addition Hills Health Center", "completeness": "29.41%", "uuid": "e5bbc859450449f299a7961d3ae13a6e", "date_modified": "2016-09-15T02:45:03Z", "source": "OpenStreetMap", "version": 2, "type": "clinic"}}, {"geometry": {"type": "Point", "coordinates": [126.190290316476, 9.0688211]}, "type": "Feature", "properties": {"source_url": "http://www.openstreetmap.org/way/455050285", "what3words": "unevenness.unsuited.mansion", "upstream": "OpenStreetMap\u00b6w455050285", "name": "Adela Serra Ty Memorial Medical Center", "completeness": "29.41%", "uuid": "6a115f048fba412b84c5928a94f8876e", "date_modified": "2016-11-22T09:19:54Z", "source": "OpenStreetMap", "version": 2, "type": "hospital"}}, {"geometry": {"type": "Point", "coordinates": [120.382869056157, 17.5682329]}, "type": "Feature", "properties": {"source_url": "http://www.openstreetmap.org/way/262195281", "what3words": "booms.nutritional.incautious", "upstream": "openstreetmap\u00b6w262195281", "name": "Adora Clinic and Hospital", "completeness": "35.29%", "uuid": "09ee263b08e7433ca8602b3aa7d27751", "date_modified": "2015-12-11T10:51:22.924Z", "source": "OpenStreetMap", "version": 2, "type": "hospital"}}, {"geometry": {"type": "Point", "coordinates": [121.0132833, 14.5807968]}, "type": "Feature", "properties": {"source_url": "http://www.openstreetmap.org/node/3074418276", "what3words": "depended.resist.puff", "upstream": "openstreetmap\u00b6n3074418276", "name": "Adoracion Diagnostic Center", "completeness": "35.29%", "uuid": "9043b63a283042b28e0ba6e6e8184891", "date_modified": "2015-11-17T09:43:57.838Z", "source": "OpenStreetMap", "version": 2, "type": "clinic"}}, {"geometry": {"type": "Point", "coordinates": [123.8873317, 10.2962714]}, "type": "Feature", "properties": {"source_url": "http://www.openstreetmap.org/node/4340936153", "what3words": "rotate.sagging.declining", "upstream": "OpenStreetMap\u00b6n4340936153", "name": "Adventist Hospital-Cebu", "completeness": "35.29%", "uuid": "6319f626920a434392b12699c6f6ae65", "date_modified": "2016-11-16T15:02:21Z", "source": "OpenStreetMap", "version": 2, "physical-address": "400 San Nicolas, Tres de Abril Street, 6000", "type": "hospital"}}, {"geometry": {"type": "Point", "coordinates": [120.9916161, 14.4422175]}, "type": "Feature", "properties": {"source_url": "http://www.openstreetmap.org/node/1728914761", "what3words": "share.trumped.shack", "upstream": "openstreetmap\u00b6n1728914761", "name": "Aesthetic Avenue Medical Clinic", "completeness": "35.29%", "uuid": "2ce74bf06121440c82d5381aaf4140ec", "date_modified": "2015-11-17T09:43:57.838Z", "source": "OpenStreetMap", "version": 2, "type": "hospital"}}, {"geometry": {"type": "Point", "coordinates": [123.73083036374, 13.13975415]}, "type": "Feature", "properties": {"source_url": "http://www.openstreetmap.org/way/249138505", "what3words": "gasping.play.prepares", "upstream": "OpenStreetMap\u00b6w249138505", "name": "Ago General Hospital", "completeness": "29.41%", "uuid": "cd0ced9f0bc04d7a8a9e9829ff58fba0", "date_modified": "2016-01-12T06:14:19Z", "source": "OpenStreetMap", "version": 2, "type": "hospital"}}, {"geometry": {"type": "Point", "coordinates": [123.213125, 13.621423]}, "type": "Feature", "properties": {"source_url": "http://www.openstreetmap.org/node/254753595", "what3words": "provider.civic.draining", "upstream": "openstreetmap\u00b6n254753595", "name": "Ago Medical Hospital", "completeness": "35.29%", "uuid": "4099369f7b074e468e6524d4f67996e6", "date_modified": "2015-11-17T09:43:57.838Z", "source": "OpenStreetMap", "version": 2, "type": "hospital"}}, {"geometry": {"type": "Point", "coordinates": [120.3604536, 16.343871]}, "type": "Feature", "properties": {"source_url": "http://www.openstreetmap.org/node/921111110", "what3words": "lump.insensible.keypad", "upstream": "openstreetmap\u00b6n921111110", "name": "Agoo Family Hospital", "completeness": "35.29%", "uuid": "4586b3b21d274049971c76f3cb2504d5", "date_modified": "2015-11-17T09:43:57.838Z", "source": "OpenStreetMap", "version": 2, "type": "hospital"}}, {"geometry": {"type": "Point", "coordinates": [125.505372639944, 8.9478846]}, "type": "Feature", "properties": {"source_url": "http://www.openstreetmap.org/way/226946089", "what3words": "forecast.rested.limo", "upstream": "openstreetmap\u00b6w226946089", "name": "Agusan del Norte Provincial Hospital", "completeness": "35.29%", "uuid": "ee15e1ab45234515a190bc98747006e7", "date_modified": "2015-12-11T10:51:22.924Z", "source": "OpenStreetMap", "version": 2, "type": "hospital"}}, {"geometry": {"type": "Point", "coordinates": [121.0444794, 14.5522398]}, "type": "Feature", "properties": {"source_url": "http://www.openstreetmap.org/node/3233877596", "what3words": "farmland.stale.blitz", "upstream": "openstreetmap\u00b6n3233877596", "name": "Aimee Aguilar-Teo M.D.", "completeness": "35.29%", "uuid": "ba76ca1eb0794993a5539f2bb1ffecea", "date_modified": "2015-11-17T09:43:57.838Z", "source": "OpenStreetMap", "version": 2, "type": "clinic"}}, {"geometry": {"type": "Point", "coordinates": [121.020005499764, 14.5168894]}, "type": "Feature", "properties": {"source_url": "http://www.openstreetmap.org/way/265570671", "what3words": "passions.pitchers.slides", "upstream": "openstreetmap\u00b6w265570671", "name": "Air Force General Hospital", "completeness": "35.29%", "uuid": "61cc7178636749d0b52430924152bcf1", "date_modified": "2015-12-11T10:51:22.924Z", "source": "OpenStreetMap", "version": 2, "type": "hospital"}}, {"geometry": {"type": "Point", "coordinates": [121.0244718, 14.42783445]}, "type": "Feature", "properties": {"source_url": "http://www.openstreetmap.org/way/23378684", "what3words": "tarred.bags.creeps", "upstream": "openstreetmap\u00b6w23378684", "name": "Alabang Medical Center", "completeness": "41.18%", "uuid": "2d9d5d97e8a44e6f87f049f9fd0e7b2b", "date_modified": "2015-12-11T10:51:22.924Z", "source": "OpenStreetMap", "version": 2, "physical-address": "Muntinlupa", "type": "hospital"}}, {"geometry": {"type": "Point", "coordinates": [121.0444262, 14.3910624]}, "type": "Feature", "properties": {"source_url": "http://www.openstreetmap.org/node/1294244416", "what3words": "trample.girder.sampled", "upstream": "openstreetmap\u00b6n1294244416", "name": "Alabang Medical Clinic", "completeness": "35.29%", "uuid": "f4451cc6a9764b169f5d51326fa48ed3", "date_modified": "2015-11-17T09:43:57.838Z", "source": "OpenStreetMap", "version": 2, "type": "hospital"}}, {"geometry": {"type": "Point", "coordinates": [120.99698919836, 14.44292675]}, "type": "Feature", "properties": {"source_url": "http://www.openstreetmap.org/way/240131999", "what3words": "ponies.zooms.dabbing", "upstream": "openstreetmap\u00b6w240131999", "name": "Alabang Medical Clinic", "completeness": "35.29%", "uuid": "ce1ed1a284ee4117bd9f9826fd92a4ee", "date_modified": "2015-12-11T10:51:22.924Z", "source": "OpenStreetMap", "version": 2, "type": "hospital"}}, {"geometry": {"type": "Point", "coordinates": [121.0147819, 14.430872]}, "type": "Feature", "properties": {"source_url": "http://www.openstreetmap.org/node/1315869712", "what3words": "bolts.driven.inhaler", "upstream": "openstreetmap\u00b6n1315869712", "name": "Alabang Medical Clinic (Almanza Branch)", "completeness": "35.29%", "uuid": "292e4610eca94bed988af854a2013da0", "date_modified": "2015-11-17T09:43:57.838Z", "source": "OpenStreetMap", "version": 2, "type": "hospital"}}, {"geometry": {"type": "Point", "coordinates": [121.0499702, 14.4192377]}, "type": "Feature", "properties": {"source_url": "http://www.openstreetmap.org/node/1826181619", "what3words": "response.advising.bearings", "upstream": "openstreetmap\u00b6n1826181619", "name": "Alabang Medical Clinic (Montillano Branch)", "completeness": "35.29%", "uuid": "283d73fde9a54873bd9b8fd60b038ff2", "date_modified": "2015-11-17T09:43:57.838Z", "source": "OpenStreetMap", "version": 2, "type": "hospital"}}, {"geometry": {"type": "Point", "coordinates": [119.9702788, 16.1305042]}, "type": "Feature", "properties": {"source_url": "http://www.openstreetmap.org/node/1698460654", "what3words": "pawnshops.heartland.carmakers", "upstream": "OpenStreetMap\u00b6n1698460654", "name": "Alaminos Doctors Hospital, Alaminos Doctors Hospital", "completeness": "29.41%", "uuid": "52ac964e27d9481d975081904fb31c46", "date_modified": "2016-10-17T23:37:56Z", "source": "OpenStreetMap", "version": 2, "type": "hospital"}}, {"geometry": {"type": "Point", "coordinates": [124.846315032765, 11.20748555]}, "type": "Feature", "properties": {"source_url": "http://www.openstreetmap.org/way/246565202", "what3words": "unfeeling.danger.canisters", "upstream": "openstreetmap\u00b6w246565202", "name": "Alangalang Rural Health Unit", "completeness": "35.29%", "uuid": "99edc2efa656436b9b910bce1594fc06", "date_modified": "2015-12-11T10:51:22.924Z", "source": "OpenStreetMap", "version": 2, "type": "hospital"}}, {"geometry": {"type": "Point", "coordinates": [123.7372168, 13.1384687]}, "type": "Feature", "properties": {"source_url": "http://www.openstreetmap.org/node/3940966068", "what3words": "lawn.crispy.triangle", "upstream": "OpenStreetMap\u00b6n3940966068", "name": "Albay Medical Specialists Clinic", "completeness": "29.41%", "uuid": "45e7bd6c563e48799f771c0468782435", "date_modified": "2016-01-12T06:30:33Z", "source": "OpenStreetMap", "version": 2, "type": "clinic"}}, {"geometry": {"type": "Point", "coordinates": [123.733083024905, 13.139345]}, "type": "Feature", "properties": {"source_url": "http://www.openstreetmap.org/way/249853474", "what3words": "renew.lamps.rejected", "upstream": "OpenStreetMap\u00b6w249853474", "name": "Albay Poly Clinic", "completeness": "29.41%", "uuid": "b2e3cca85c894c28966a01b5041ab94a", "date_modified": "2016-01-03T02:43:32Z", "source": "OpenStreetMap", "version": 2, "type": "clinic"}}, {"geometry": {"type": "Point", "coordinates": [122.4309319, 10.7864696]}, "type": "Feature", "properties": {"source_url": "http://www.openstreetmap.org/node/3833641541", "what3words": "landowning.paragraphs.peppermint", "upstream": "OpenStreetMap\u00b6n3833641541", "name": "Aleosan District Hospital", "completeness": "29.41%", "uuid": "a75c26e7f51a45b4b871f5fb51b9da52", "date_modified": "2015-11-13T01:25:02Z", "source": "OpenStreetMap", "version": 2, "type": "hospital"}}, {"geometry": {"type": "Point", "coordinates": [125.583086245824, 7.06009165]}, "type": "Feature", "properties": {"source_url": "http://www.openstreetmap.org/way/29176720", "what3words": "prompting.flushed.bronzer", "upstream": "OpenStreetMap\u00b6w29176720", "name": "Alexian Health and Wellness Center", "completeness": "35.29%", "uuid": "39110229402d4778b1b805b2f4734722", "date_modified": "2016-09-03T06:26:39Z", "source": "OpenStreetMap", "version": 2, "physical-address": "McArthur Highway, Davao City, 8000", "type": "clinic"}}, {"geometry": {"type": "Point", "coordinates": [121.0861052, 14.5681954]}, "type": "Feature", "properties": {"source_url": "http://www.openstreetmap.org/node/1998698325", "what3words": "chains.scouting.float", "upstream": "openstreetmap\u00b6n1998698325", "name": "Alfonso Clinic", "completeness": "35.29%", "uuid": "74db503677784c7fbe68a48d3d043b27", "date_modified": "2015-11-17T09:43:57.838Z", "source": "OpenStreetMap", "version": 2, "type": "hospital"}}, {"geometry": {"type": "Point", "coordinates": [118.744154833869, 9.74861125]}, "type": "Feature", "properties": {"source_url": "http://www.openstreetmap.org/way/274474061", "what3words": "stud.spiking.ruled", "upstream": "openstreetmap\u00b6w274474061", "name": "Alfonso Medical Clinic", "completeness": "35.29%", "uuid": "d828e76acd6a41758225826d3e4b4d9d", "date_modified": "2015-12-11T10:51:22.924Z", "source": "OpenStreetMap", "version": 2, "type": "hospital"}}, {"geometry": {"type": "Point", "coordinates": [121.996897955243, 18.2578957]}, "type": "Feature", "properties": {"source_url": "http://www.openstreetmap.org/way/267432255", "what3words": "guess.imploded.nonviable", "upstream": "openstreetmap\u00b6w267432255", "name": "Alfonso Ponce Enrile Memorial District Hospital", "completeness": "35.29%", "uuid": "8fbcdb9df75949928337f1d6dd1e7cfc", "date_modified": "2015-12-11T10:51:22.924Z", "source": "OpenStreetMap", "version": 2, "type": "hospital"}}, {"geometry": {"type": "Point", "coordinates": [123.372461260398, 10.80809505]}, "type": "Feature", "properties": {"source_url": "http://www.openstreetmap.org/way/316764727", "what3words": "undirected.mice.tearful", "upstream": "openstreetmap\u00b6w316764727", "name": "Alfredo E. Mara\u00f1on, Sr. Memorial District Hospital", "completeness": "35.29%", "uuid": "044ffe747aac4d51aea176639a203637", "date_modified": "2015-12-11T10:51:22.924Z", "source": "OpenStreetMap", "version": 2, "type": "hospital"}}, {"geometry": {"type": "Point", "coordinates": [124.440884825317, 9.89797405]}, "type": "Feature", "properties": {"source_url": "http://www.openstreetmap.org/way/317473993", "what3words": "spurs.rectangle.hoaxes", "upstream": "openstreetmap\u00b6w317473993", "name": "Alicia Birthing Center", "completeness": "35.29%", "uuid": "3e0acd2334ae4bdcb85f3a26dc8b5a65", "date_modified": "2015-12-11T10:51:22.924Z", "source": "OpenStreetMap", "version": 2, "type": "hospital"}}, {"geometry": {"type": "Point", "coordinates": [121.5549234, 18.2267566]}, "type": "Feature", "properties": {"source_url": "http://www.openstreetmap.org/node/4172953389", "what3words": "behind.weathermen.delivers", "upstream": "OpenStreetMap\u00b6n4172953389", "name": "Allacapan Rural Health Unit", "completeness": "29.41%", "uuid": "2a995b33fe9e47b8bd1ac49b7f954215", "date_modified": "2016-05-08T15:03:25Z", "source": "OpenStreetMap", "version": 2, "type": "clinic"}}, {"geometry": {"type": "Point", "coordinates": [124.867309725356, 6.4784759]}, "type": "Feature", "properties": {"source_url": "http://www.openstreetmap.org/way/315695271", "what3words": "beats.button.earl", "upstream": "openstreetmap\u00b6w315695271", "name": "Allah Valley Hospital", "completeness": "35.29%", "uuid": "314f1d081ac34566acd9f1f3e1af6bd9", "date_modified": "2015-12-11T10:51:22.924Z", "source": "OpenStreetMap", "version": 2, "type": "hospital"}}, {"geometry": {"type": "Point", "coordinates": [122.5401127, 10.7438442]}, "type": "Feature", "properties": {"source_url": "http://www.openstreetmap.org/node/4496950464", "what3words": "survivor.doll.private", "upstream": "OpenStreetMap\u00b6n4496950464", "name": "Allied Care Experts (ACE) Medical Center", "completeness": "29.41%", "uuid": "085f6246fb6b4bf58c5d68e5a2322c72", "date_modified": "2016-11-12T15:51:26Z", "source": "OpenStreetMap", "version": 2, "type": "hospital"}}, {"geometry": {"type": "Point", "coordinates": [120.8844595, 14.9520114]}, "type": "Feature", "properties": {"source_url": "http://www.openstreetmap.org/node/4717619893", "what3words": "rise.perfect.groomed", "upstream": "OpenStreetMap\u00b6n4717619893", "name": "Allied Care Experts Medical Center Baliuag, Allied Care Experts Medical Center Baliuag", "completeness": "29.41%", "uuid": "b43fad2af0d041daaa32d1d5ce589cf4", "date_modified": "2017-03-05T04:33:47Z", "source": "OpenStreetMap", "version": 2, "type": "hospital"}}, {"geometry": {"type": "Point", "coordinates": [120.9577349, 14.7154241]}, "type": "Feature", "properties": {"source_url": "http://www.openstreetmap.org/node/4568449790", "what3words": "pushy.suppers.offshore", "upstream": "OpenStreetMap\u00b6n4568449790", "name": "Allied Care Experts Medical Center Valenzuela, ALLIED CARE EXPERTS MEDICAL CENTER VALENZUELA", "completeness": "35.29%", "uuid": "c3b3280e1c6645529f55168711befbfd", "date_modified": "2017-02-13T13:54:30Z", "source": "OpenStreetMap", "version": 2, "physical-address": "MacArthur Highway", "type": "hospital"}}, {"geometry": {"type": "Point", "coordinates": [123.3016063, 9.316855]}, "type": "Feature", "properties": {"source_url": "http://www.openstreetmap.org/node/2934976454", "what3words": "gender.second.arming", "upstream": "openstreetmap\u00b6n2934976454", "name": "Allied Home Health Services", "completeness": "35.29%", "uuid": "4805a4c0ec5a4f92b6ee148ed41ac687", "date_modified": "2015-11-17T09:43:57.838Z", "source": "OpenStreetMap", "version": 2, "type": "clinic"}}, {"geometry": {"type": "Point", "coordinates": [121.016017651193, 14.42005835]}, "type": "Feature", "properties": {"source_url": "http://www.openstreetmap.org/way/273410303", "what3words": "teachers.odds.sailor", "upstream": "openstreetmap\u00b6w273410303", "name": "Almanza II Health Center", "completeness": "35.29%", "uuid": "fdd028e4a5044562b0cd6fb1665a0973", "date_modified": "2015-12-11T10:51:22.924Z", "source": "OpenStreetMap", "version": 2, "type": "hospital"}}, {"geometry": {"type": "Point", "coordinates": [123.8051048, 8.4816028]}, "type": "Feature", "properties": {"source_url": "http://www.openstreetmap.org/node/4401966989", "what3words": "slap.binders.dating", "upstream": "OpenStreetMap\u00b6n4401966989", "name": "Almonte Skin Clinic, Almonte Skin Clinic", "completeness": "29.41%", "uuid": "17c4eae4e7934ec8bfe9fbcaaaaafc69", "date_modified": "2016-09-15T02:43:40Z", "source": "OpenStreetMap", "version": 2, "type": "clinic"}}, {"geometry": {"type": "Point", "coordinates": [125.6219532, 7.0815209]}, "type": "Feature", "properties": {"source_url": "http://www.openstreetmap.org/node/4129797189", "what3words": "dweller.juggle.contents", "upstream": "OpenStreetMap\u00b6n4129797189", "name": "Alojado Dental Clinic", "completeness": "29.41%", "uuid": "ae9c907d18314217a1cdcc2db59a186b", "date_modified": "2016-04-18T07:47:15Z", "source": "OpenStreetMap", "version": 2, "type": "clinic"}}, {"geometry": {"type": "Point", "coordinates": [121.0252023, 14.5727259]}, "type": "Feature", "properties": {"source_url": "http://www.openstreetmap.org/node/4591617193", "phone": "09285067903", "what3words": "clasps.angers.command", "upstream": "OpenStreetMap\u00b6n4591617193", "name": "Alro Drugtesting Center, Alro Drugtesting Center", "completeness": "41.18%", "uuid": "4507ead5c1e848d9aad31479c0f46895", "date_modified": "2017-01-05T23:23:16Z", "source": "OpenStreetMap", "version": 2, "physical-address": "9624, Pililla, 1208", "type": "clinic", "email": "alro_med@yahoo.com"}}, {"geometry": {"type": "Point", "coordinates": [125.63204602481, 7.0869882]}, "type": "Feature", "properties": {"source_url": "http://www.openstreetmap.org/way/37121709", "what3words": "kettles.hinted.bench", "upstream": "openstreetmap\u00b6w37121709", "name": "Alterado General Hospital", "completeness": "35.29%", "uuid": "c201165c28754c8187c41bbc149e4195", "date_modified": "2015-12-11T10:51:22.924Z", "source": "OpenStreetMap", "version": 2, "type": "hospital"}}, {"geometry": {"type": "Point", "coordinates": [120.8881944, 13.497375]}, "type": "Feature", "properties": {"source_url": "http://www.openstreetmap.org/node/358209328", "what3words": "playmates.victimless.multiply", "upstream": "openstreetmap\u00b6n358209328", "name": "Amade Clinic", "completeness": "35.29%", "uuid": "5acf04f226914de885c1fd76c6586fc8", "date_modified": "2015-11-17T09:43:57.838Z", "source": "OpenStreetMap", "version": 2, "type": "hospital"}}, {"geometry": {"type": "Point", "coordinates": [120.888156063191, 13.49730815]}, "type": "Feature", "properties": {"source_url": "http://www.openstreetmap.org/way/458734064", "what3words": "congas.shames.knowledge", "upstream": "OpenStreetMap\u00b6w458734064", "name": "Amade Clinic", "completeness": "29.41%", "uuid": "afa826cff620404f87feb41b8a21dfe6", "date_modified": "2016-12-09T18:15:11Z", "source": "OpenStreetMap", "version": 2, "type": "hospital"}}, {"geometry": {"type": "Point", "coordinates": [124.530801270571, 7.1894124]}, "type": "Feature", "properties": {"source_url": "http://www.openstreetmap.org/way/462582429", "what3words": "equated.boards.tabulated", "upstream": "OpenStreetMap\u00b6w462582429", "name": "Amado Diaz Hospital, Amado Diaz Hospital", "completeness": "29.41%", "uuid": "21be9c7c19d8465da12f3446560d6357", "date_modified": "2016-12-29T15:08:30Z", "source": "OpenStreetMap", "version": 2, "type": "hospital"}}, {"geometry": {"type": "Point", "coordinates": [121.0975038, 14.6336058]}, "type": "Feature", "properties": {"source_url": "http://www.openstreetmap.org/node/2620997853", "what3words": "earlobe.safest.frock", "upstream": "openstreetmap\u00b6n2620997853", "name": "Amana Dental and Medical Clinic", "completeness": "35.29%", "uuid": "3bb6d72ef58f4df4836d2f0d30eca961", "date_modified": "2015-11-17T09:43:57.838Z", "source": "OpenStreetMap", "version": 2, "type": "clinic"}}, {"geometry": {"type": "Point", "coordinates": [121.09845651492, 14.63614525]}, "type": "Feature", "properties": {"source_url": "http://www.openstreetmap.org/way/54025002", "what3words": "sometime.fevered.easy", "upstream": "openstreetmap\u00b6w54025002", "name": "Amang Rodriguez Memorial Medical Center", "completeness": "41.18%", "uuid": "76defc985d9e4fd9825b11cf2a2b6456", "date_modified": "2015-12-11T10:51:22.924Z", "source": "OpenStreetMap", "version": 2, "physical-address": "Don Juan Sumulong, Marikina", "type": "hospital"}}, {"geometry": {"type": "Point", "coordinates": [120.9781047, 14.6328532]}, "type": "Feature", "properties": {"source_url": "http://www.openstreetmap.org/node/1279209740", "what3words": "nagging.promoted.travels", "upstream": "openstreetmap\u00b6n1279209740", "name": "Amisola Maternity Hospital", "completeness": "35.29%", "uuid": "b59d7cfcb5834c719bd7e4964899ac14", "date_modified": "2015-11-17T09:43:57.838Z", "source": "OpenStreetMap", "version": 2, "type": "hospital"}}, {"geometry": {"type": "Point", "coordinates": [123.2238475, 9.4639849]}, "type": "Feature", "properties": {"source_url": "http://www.openstreetmap.org/node/3707471121", "what3words": "complex.centipedes.heartbeats", "upstream": "openstreetmap\u00b6n3707471121", "name": "Amlan Rural Health Unit", "completeness": "35.29%", "uuid": "179648f9b52742fd9c6ca4f8d9b3a078", "date_modified": "2015-11-17T09:43:57.838Z", "source": "OpenStreetMap", "version": 2, "type": "clinic"}}, {"geometry": {"type": "Point", "coordinates": [122.534637741628, 10.7146162]}, "type": "Feature", "properties": {"source_url": "http://www.openstreetmap.org/way/142868363", "what3words": "slurs.happily.jobs", "upstream": "openstreetmap\u00b6w142868363", "name": "Amosup Seamen's Hospital", "completeness": "35.29%", "uuid": "8346e2af7c2549aca418afdb89551b81", "date_modified": "2015-12-11T10:51:22.924Z", "source": "OpenStreetMap", "version": 2, "type": "hospital"}}, {"geometry": {"type": "Point", "coordinates": [125.602599349822, 8.9609432]}, "type": "Feature", "properties": {"source_url": "http://www.openstreetmap.org/way/318831549", "what3words": "traumas.assists.barring", "upstream": "openstreetmap\u00b6w318831549", "name": "Ampayon Main Health Center", "completeness": "35.29%", "uuid": "124713164b9d4e12ac05fc16a2eca9bc", "date_modified": "2015-12-11T10:51:22.924Z", "source": "OpenStreetMap", "version": 2, "type": "clinic"}}, {"geometry": {"type": "Point", "coordinates": [124.9535625, 10.8100393]}, "type": "Feature", "properties": {"source_url": "http://www.openstreetmap.org/node/3844213613", "what3words": "deputies.grilled.heartbreaking", "upstream": "OpenStreetMap\u00b6n3844213613", "name": "Andres Bonifacio Health Center", "completeness": "29.41%", "uuid": "aaa617da5f6b4157931a4f4b9a311824", "date_modified": "2015-11-19T08:37:40Z", "source": "OpenStreetMap", "version": 2, "type": "clinic"}}, {"geometry": {"type": "Point", "coordinates": [126.341090713497, 8.18345725]}, "type": "Feature", "properties": {"source_url": "http://www.openstreetmap.org/way/153929858", "what3words": "towels.consents.urgencies", "upstream": "openstreetmap\u00b6w153929858", "name": "Andres Soriano Memorial Hospital", "completeness": "35.29%", "uuid": "1b62595c015942f5b82a37b7690c2ca1", "date_modified": "2015-12-11T10:51:22.924Z", "source": "OpenStreetMap", "version": 2, "type": "hospital"}}, {"geometry": {"type": "Point", "coordinates": [125.1483117, 6.1763117]}, "type": "Feature", "properties": {"source_url": "http://www.openstreetmap.org/node/4292229194", "phone": "09161297919", "what3words": "stutterers.relieves.contorted", "upstream": "OpenStreetMap\u00b6n4292229194", "name": "Angel Paanakan", "completeness": "41.18%", "uuid": "76b2fc1de94c4bc584865e5e89d87fc6", "date_modified": "2016-07-09T06:11:02Z", "source": "OpenStreetMap", "version": 2, "physical-address": "Golingan 1", "type": "clinic"}}, {"geometry": {"type": "Point", "coordinates": [121.9391547, 13.9924128]}, "type": "Feature", "properties": {"source_url": "http://www.openstreetmap.org/node/1114428132", "what3words": "sieves.puppeteers.swimsuits", "upstream": "openstreetmap\u00b6n1114428132", "name": "Angeles Health Center,Atimonan Quezon", "completeness": "35.29%", "uuid": "525dc01429aa40c8a3a5d8fb36b951ae", "date_modified": "2015-11-17T09:43:57.838Z", "source": "OpenStreetMap", "version": 2, "type": "hospital"}}, {"geometry": {"type": "Point", "coordinates": [120.5893314, 15.1412652]}, "type": "Feature", "properties": {"source_url": "http://www.openstreetmap.org/node/679310305", "what3words": "bright.formally.remake", "upstream": "openstreetmap\u00b6n679310305", "name": "Angeles Medical Center", "completeness": "35.29%", "uuid": "e5e2f0a1dfe04ee68c45c381dd12b65b", "date_modified": "2015-11-17T09:43:57.838Z", "source": "OpenStreetMap", "version": 2, "type": "hospital"}}, {"geometry": {"type": "Point", "coordinates": [120.594989299113, 15.14508105]}, "type": "Feature", "properties": {"source_url": "http://www.openstreetmap.org/way/174725525", "what3words": "letter.nibbled.friction", "upstream": "openstreetmap\u00b6w174725525", "name": "Angeles University Foundation Medical Center", "completeness": "41.18%", "uuid": "f2abdf47d00d42648533519ba080bbf0", "date_modified": "2015-12-11T10:51:22.924Z", "source": "OpenStreetMap", "version": 2, "physical-address": "MacArthur Highway, Angeles", "type": "hospital"}}, {"geometry": {"type": "Point", "coordinates": [120.5843133, 15.1494454]}, "type": "Feature", "properties": {"source_url": "http://www.openstreetmap.org/node/4597725993", "what3words": "magazine.sport.major", "upstream": "OpenStreetMap\u00b6n4597725993", "name": "Angeles city bloodbank, Angeles city bloodbank", "completeness": "29.41%", "uuid": "b058b64e38554a0585fe4f992f544fed", "date_modified": "2017-01-09T10:30:29Z", "source": "OpenStreetMap", "version": 2, "type": "clinic"}}, {"geometry": {"type": "Point", "coordinates": [121.152155860773, 14.5266915]}, "type": "Feature", "properties": {"source_url": "http://www.openstreetmap.org/way/263121475", "what3words": "truth.choirs.luring", "upstream": "openstreetmap\u00b6w263121475", "name": "Angono General Hospital", "completeness": "41.18%", "uuid": "443a25999ef9450da590c4a12f0abdbc", "date_modified": "2015-12-11T10:51:22.924Z", "source": "OpenStreetMap", "version": 2, "physical-address": "Angono", "type": "hospital"}}, {"geometry": {"type": "Point", "coordinates": [121.152911005755, 14.5314111]}, "type": "Feature", "properties": {"source_url": "http://www.openstreetmap.org/way/261877875", "what3words": "cloth.explored.renamed", "upstream": "openstreetmap\u00b6w261877875", "name": "Angono Medics Hospital", "completeness": "41.18%", "uuid": "7ca331f1ada545578796a2f08e55fb9e", "date_modified": "2015-12-11T10:51:22.924Z", "source": "OpenStreetMap", "version": 2, "physical-address": "Angono", "type": "hospital"}}, {"geometry": {"type": "Point", "coordinates": [121.0239213, 14.5889615]}, "type": "Feature", "properties": {"source_url": "http://www.openstreetmap.org/node/4445664435", "what3words": "tragedy.vocab.sculpture", "upstream": "OpenStreetMap\u00b6n4445664435", "name": "Animal Bite Center", "completeness": "35.29%", "uuid": "0996e1271c3d4b7094d59389845d3fdf", "date_modified": "2016-10-13T11:39:25Z", "source": "OpenStreetMap", "version": 2, "physical-address": "123", "type": "clinic"}}, {"geometry": {"type": "Point", "coordinates": [123.30083485, 9.3218948]}, "type": "Feature", "properties": {"source_url": "http://www.openstreetmap.org/way/243873832", "what3words": "sourced.unwind.panther", "upstream": "openstreetmap\u00b6w243873832", "name": "Animal Disease (rabies) Diagnostic Laboratory", "completeness": "35.29%", "uuid": "81bdab1a74664892b9a0df5049587775", "date_modified": "2015-12-11T10:51:22.924Z", "source": "OpenStreetMap", "version": 2, "type": "clinic"}}, {"geometry": {"type": "Point", "coordinates": [121.0312571, 14.6943711]}, "type": "Feature", "properties": {"source_url": "http://www.openstreetmap.org/node/597000047", "what3words": "dialect.circling.adjust", "upstream": "openstreetmap\u00b6n597000047", "name": "Ann Francis Maternity Hospital", "completeness": "35.29%", "uuid": "604a34fbe8ee48d08e67bfdf58912390", "date_modified": "2015-11-17T09:43:57.838Z", "source": "OpenStreetMap", "version": 2, "type": "hospital"}}, {"geometry": {"type": "Point", "coordinates": [121.1782608, 14.5919011]}, "type": "Feature", "properties": {"source_url": "http://www.openstreetmap.org/way/297887297", "what3words": "trainers.relaxed.sprawls", "upstream": "openstreetmap\u00b6w297887297", "name": "Antipolo Community Hospital", "completeness": "41.18%", "uuid": "bbf63f7b02f64dffbd36e99d7cc17e95", "date_modified": "2015-12-11T10:51:22.924Z", "source": "OpenStreetMap", "version": 2, "physical-address": "Antipolo", "type": "hospital"}}, {"geometry": {"type": "Point", "coordinates": [121.17701222765, 14.574407]}, "type": "Feature", "properties": {"source_url": "http://www.openstreetmap.org/way/235595022", "what3words": "down.sings.pickle", "upstream": "openstreetmap\u00b6w235595022", "name": "Antipolo Doctors Hospital", "completeness": "35.29%", "uuid": "2c2f5a3850804faead9fe75d5ce0d9e7", "date_modified": "2015-12-11T10:51:22.924Z", "source": "OpenStreetMap", "version": 2, "type": "hospital"}}, {"geometry": {"type": "Point", "coordinates": [121.177080406489, 14.57440375]}, "type": "Feature", "properties": {"source_url": "http://www.openstreetmap.org/way/316651481", "what3words": "tarred.under.motion", "upstream": "openstreetmap\u00b6w316651481", "name": "Antipolo Doctors Hospital", "completeness": "41.18%", "uuid": "11728265541c4f8d9fd404999d4eed0c", "date_modified": "2015-12-11T10:51:22.924Z", "source": "OpenStreetMap", "version": 2, "physical-address": "Antipolo City, 1870", "type": "hospital"}}, {"geometry": {"type": "Point", "coordinates": [121.12395295, 14.62933115]}, "type": "Feature", "properties": {"source_url": "http://www.openstreetmap.org/way/183018529", "what3words": "recorder.bashful.palm", "upstream": "openstreetmap\u00b6w183018529", "name": "Antipolo General Hospital", "completeness": "35.29%", "uuid": "7e8feb3d4aff4cc588e20f11853c63f0", "date_modified": "2015-12-11T10:51:22.924Z", "source": "OpenStreetMap", "version": 2, "type": "hospital"}}, {"geometry": {"type": "Point", "coordinates": [118.7379636, 9.76667325]}, "type": "Feature", "properties": {"source_url": "http://www.openstreetmap.org/way/338252858", "what3words": "lamps.charge.loaders", "upstream": "OpenStreetMap\u00b6w338252858", "name": "Antonio Socrates Rehabilitation Centre", "completeness": "29.41%", "uuid": "43863f552838469888d114da3cd824ef", "date_modified": "2016-04-06T14:49:07Z", "source": "OpenStreetMap", "version": 2, "type": "clinic"}}, {"geometry": {"type": "Point", "coordinates": [120.647260509312, 14.05100075]}, "type": "Feature", "properties": {"source_url": "http://www.openstreetmap.org/way/458228120", "what3words": "fatiguing.moment.uplifted", "upstream": "OpenStreetMap\u00b6w458228120", "name": "Apacible Memorial District Hospital", "completeness": "29.41%", "uuid": "9d6afb060ce54ac9b498c843cc3c7757", "date_modified": "2017-01-06T20:08:05Z", "source": "OpenStreetMap", "version": 2, "type": "hospital"}}, {"geometry": {"type": "Point", "coordinates": [120.7640739, 14.95202]}, "type": "Feature", "properties": {"source_url": "http://www.openstreetmap.org/node/694305356", "what3words": "deep.news.harmless", "upstream": "openstreetmap\u00b6n694305356", "name": "Apalit Doctors Hospital", "completeness": "35.29%", "uuid": "1de26973d82c4af9a9aff6f8affacef4", "date_modified": "2015-11-17T09:43:57.838Z", "source": "OpenStreetMap", "version": 2, "type": "hospital"}}, {"geometry": {"type": "Point", "coordinates": [121.65804135, 18.30902415]}, "type": "Feature", "properties": {"source_url": "http://www.openstreetmap.org/relation/3588935", "what3words": "navigate.bulk.convincing", "upstream": "openstreetmap\u00b6r3588935", "name": "Aparri District Hospital", "completeness": "35.29%", "uuid": "ca1246d18b934526b9eecb0c201b5e34", "date_modified": "2015-12-11T10:51:22.924Z", "source": "OpenStreetMap", "version": 2, "type": "hospital"}}, {"geometry": {"type": "Point", "coordinates": [123.734970179462, 13.1464493]}, "type": "Feature", "properties": {"source_url": "http://www.openstreetmap.org/way/32481631", "what3words": "alarming.places.concerts", "upstream": "OpenStreetMap\u00b6w32481631", "name": "Aquinas University Hospital", "completeness": "29.41%", "uuid": "bae872123df649f38d7050d647efe088", "date_modified": "2013-12-20T14:15:32Z", "source": "OpenStreetMap", "version": 2, "type": "hospital"}}, {"geometry": {"type": "Point", "coordinates": [120.766488, 15.1476875]}, "type": "Feature", "properties": {"source_url": "http://www.openstreetmap.org/node/4233959492", "what3words": "airflow.info.illusionist", "upstream": "OpenStreetMap\u00b6n4233959492", "name": "Arayat Doctors Hospital", "completeness": "35.29%", "uuid": "2a5bf579163f452399f7f921eb091287", "date_modified": "2016-06-09T14:29:39Z", "source": "OpenStreetMap", "version": 2, "physical-address": "Jose Abad Santos Avenue", "type": "hospital"}}, {"geometry": {"type": "Point", "coordinates": [120.5892671, 15.1422283]}, "type": "Feature", "properties": {"source_url": "http://www.openstreetmap.org/node/679310124", "what3words": "mocked.stunts.yoga", "upstream": "openstreetmap\u00b6n679310124", "name": "Armando Garcia Hospital", "completeness": "35.29%", "uuid": "85e26867483f4d70b86d763f2235e554", "date_modified": "2015-11-17T09:43:57.838Z", "source": "OpenStreetMap", "version": 2, "type": "hospital"}}, {"geometry": {"type": "Point", "coordinates": [121.230755150469, 18.5611148]}, "type": "Feature", "properties": {"source_url": "http://www.openstreetmap.org/way/251867500", "what3words": "annuals.clearance.gobbled", "upstream": "openstreetmap\u00b6w251867500", "name": "Asanias Polyclinic", "completeness": "35.29%", "uuid": "84306778b5a146f7bddfad277e1eee12", "date_modified": "2015-12-11T10:51:22.924Z", "source": "OpenStreetMap", "version": 2, "type": "hospital"}}, {"geometry": {"type": "Point", "coordinates": [120.7677782, 14.9529089]}, "type": "Feature", "properties": {"source_url": "http://www.openstreetmap.org/node/694305357", "what3words": "globe.overtime.swim", "upstream": "openstreetmap\u00b6n694305357", "name": "Ascom Hospital", "completeness": "35.29%", "uuid": "b2255aa24a41468ba7e826418ba4a6b9", "date_modified": "2015-11-17T09:43:57.838Z", "source": "OpenStreetMap", "version": 2, "type": "hospital"}}, {"geometry": {"type": "Point", "coordinates": [120.9385779, 14.3736578]}, "type": "Feature", "properties": {"source_url": "http://www.openstreetmap.org/node/1383056256", "what3words": "jaws.stars.declines", "upstream": "openstreetmap\u00b6n1383056256", "name": "Asia Medic Diagnostic Center", "completeness": "35.29%", "uuid": "5a08b1f0625946e189dcd6ac8a51ad71", "date_modified": "2015-11-17T09:43:57.838Z", "source": "OpenStreetMap", "version": 2, "type": "hospital"}}, {"geometry": {"type": "Point", "coordinates": [120.956637017086, 14.2988993]}, "type": "Feature", "properties": {"source_url": "http://www.openstreetmap.org/way/162625955", "what3words": "improving.kindest.crash", "upstream": "openstreetmap\u00b6w162625955", "name": "Asia Medic Family Hospital", "completeness": "35.29%", "uuid": "2fe8916f03ef43c4947fd78ace42f5c8", "date_modified": "2015-12-11T10:51:22.924Z", "source": "OpenStreetMap", "version": 2, "type": "hospital"}}, {"geometry": {"type": "Point", "coordinates": [121.022652, 14.6576202]}, "type": "Feature", "properties": {"source_url": "http://www.openstreetmap.org/node/1648499075", "what3words": "milkman.panic.tidy", "upstream": "openstreetmap\u00b6n1648499075", "name": "Asia Renal Care", "completeness": "35.29%", "uuid": "9a31302690d548c4bd8ab60a213ca792", "date_modified": "2015-11-17T09:43:57.838Z", "source": "OpenStreetMap", "version": 2, "type": "clinic"}}, {"geometry": {"type": "Point", "coordinates": [121.043555537866, 14.41318165]}, "type": "Feature", "properties": {"source_url": "http://www.openstreetmap.org/way/23378990", "what3words": "zone.waxer.basic", "upstream": "openstreetmap\u00b6w23378990", "name": "Asian Hospital and Medical Center", "completeness": "41.18%", "uuid": "1f8bb39eb52c492da63ade5b170cd9a9", "date_modified": "2015-12-11T10:51:22.924Z", "url": "http://www.asianhospital.com/", "source": "OpenStreetMap", "version": 2, "physical-address": "Civic Drive, Muntinlupa, 1781", "type": "hospital"}}, {"geometry": {"type": "Point", "coordinates": [125.345766, 6.64128165]}, "type": "Feature", "properties": {"source_url": "http://www.openstreetmap.org/way/317473098", "what3words": "talked.lighthouse.convince", "upstream": "OpenStreetMap\u00b6w317473098", "name": "Asilo Hospital", "completeness": "29.41%", "uuid": "975be60f5f5a449fa67af84a03f79104", "date_modified": "2015-12-27T04:06:57Z", "source": "OpenStreetMap", "version": 2, "type": "hospital"}}, {"geometry": {"type": "Point", "coordinates": [120.6746366, 16.0168339]}, "type": "Feature", "properties": {"source_url": "http://www.openstreetmap.org/node/2389408112", "what3words": "stalactite.those.fishers", "upstream": "openstreetmap\u00b6n2389408112", "name": "Asingan Community Hospital", "completeness": "35.29%", "uuid": "feee7801b1d64b698449aed40f6757e7", "date_modified": "2015-11-17T09:43:57.838Z", "source": "OpenStreetMap", "version": 2, "type": "hospital"}}, {"geometry": {"type": "Point", "coordinates": [120.6746963, 16.0169038]}, "type": "Feature", "properties": {"source_url": "http://www.openstreetmap.org/node/3953604810", "what3words": "steamiest.mopping.phrased", "upstream": "OpenStreetMap\u00b6n3953604810", "name": "Asingan Community Hospital", "completeness": "29.41%", "uuid": "d794f0b5cf6440ceb37744a5409ff40c", "date_modified": "2016-02-23T14:31:44Z", "source": "OpenStreetMap", "version": 2, "type": "hospital"}}, {"geometry": {"type": "Point", "coordinates": [120.9227539, 13.878946]}, "type": "Feature", "properties": {"source_url": "http://www.openstreetmap.org/node/4491602564", "what3words": "elites.agreeable.merited", "upstream": "OpenStreetMap\u00b6n4491602564", "name": "Assumpta Hospital", "completeness": "29.41%", "uuid": "26e2f6d64a1d4cc28fe353f5834d1c6b", "date_modified": "2016-11-10T03:37:45Z", "source": "OpenStreetMap", "version": 2, "type": "hospital"}}, {"geometry": {"type": "Point", "coordinates": [120.597385406034, 16.4136059]}, "type": "Feature", "properties": {"source_url": "http://www.openstreetmap.org/way/299943869", "what3words": "scouted.spins.pebble", "upstream": "openstreetmap\u00b6w299943869", "name": "Assumption Diagnostic Center", "completeness": "35.29%", "uuid": "53c990bdb4df4db99997528805ed3cde", "date_modified": "2015-12-11T10:51:22.924Z", "source": "OpenStreetMap", "version": 2, "type": "clinic"}}, {"geometry": {"type": "Point", "coordinates": [125.755240881919, 7.5390871]}, "type": "Feature", "properties": {"source_url": "http://www.openstreetmap.org/way/289138984", "what3words": "plunking.warden.treble", "upstream": "openstreetmap\u00b6w289138984", "name": "Asuncion MHC", "completeness": "35.29%", "uuid": "47d4ce854740462280bba0f86f229576", "date_modified": "2015-12-11T10:51:22.924Z", "source": "OpenStreetMap", "version": 2, "type": "hospital"}}, {"geometry": {"type": "Point", "coordinates": [120.626346028959, 16.3768629]}, "type": "Feature", "properties": {"source_url": "http://www.openstreetmap.org/way/478363538", "what3words": "export.polite.liquids", "upstream": "OpenStreetMap\u00b6w478363538", "name": "Atok Trail Health Clinic", "completeness": "29.41%", "uuid": "ff47506c73bf4ba8b505ef4ecc25132d", "date_modified": "2017-03-04T00:57:22Z", "source": "OpenStreetMap", "version": 2, "type": "clinic"}}, {"geometry": {"type": "Point", "coordinates": [125.167765695659, 6.1129982]}, "type": "Feature", "properties": {"source_url": "http://www.openstreetmap.org/way/274461174", "what3words": "quite.counts.supplier", "upstream": "openstreetmap\u00b6w274461174", "name": "Auguis Clinic & Hospital", "completeness": "41.18%", "uuid": "a35283f894f646abb900bc7dc679baec", "date_modified": "2015-12-11T10:51:22.924Z", "source": "OpenStreetMap", "version": 2, "physical-address": "General Santos", "type": "hospital"}}, {"geometry": {"type": "Point", "coordinates": [121.563035280812, 15.76018935]}, "type": "Feature", "properties": {"source_url": "http://www.openstreetmap.org/way/200248562", "what3words": "riverboats.introduces.fluorine", "upstream": "openstreetmap\u00b6w200248562", "name": "Aurora Memorial Hospital", "completeness": "41.18%", "uuid": "bec6cdfac8f2458aa5551c8333ecfd65", "date_modified": "2015-12-11T10:51:22.924Z", "source": "OpenStreetMap", "version": 2, "physical-address": "Quezon Street, Baler, 3200", "type": "hospital"}}, {"geometry": {"type": "Point", "coordinates": [121.0145111, 14.5579253]}, "type": "Feature", "properties": {"source_url": "http://www.openstreetmap.org/node/4198257889", "what3words": "pace.caller.forgiven", "upstream": "OpenStreetMap\u00b6n4198257889", "name": "Aventus", "completeness": "29.41%", "uuid": "ec8307c6914d49d6ae44b28f793914ef", "date_modified": "2016-05-21T06:55:48Z", "source": "OpenStreetMap", "version": 2, "type": "clinic"}}, {"geometry": {"type": "Point", "coordinates": [121.0617713, 14.589305]}, "type": "Feature", "properties": {"source_url": "http://www.openstreetmap.org/node/4636756389", "what3words": "headache.hurls.frantic", "upstream": "OpenStreetMap\u00b6n4636756389", "name": "Aventus Medical Center, Inc.", "completeness": "35.29%", "uuid": "e2209d66dfa74989ae1e756178c8d580", "date_modified": "2017-01-27T05:22:28Z", "source": "OpenStreetMap", "version": 2, "physical-address": "1, Sapphire Road", "type": "clinic"}}, {"geometry": {"type": "Point", "coordinates": [126.001870053604, 7.9665049]}, "type": "Feature", "properties": {"source_url": "http://www.openstreetmap.org/way/401729083", "what3words": "biped.faulty.winces", "upstream": "OpenStreetMap\u00b6w401729083", "name": "Awao Barangay Health Station", "completeness": "29.41%", "uuid": "196f290f1f1146cf94bb9cb158dde8c8", "date_modified": "2016-09-21T10:14:37Z", "source": "OpenStreetMap", "version": 2, "type": "clinic"}}, {"geometry": {"type": "Point", "coordinates": [121.030243792376, 14.42470535]}, "type": "Feature", "properties": {"source_url": "http://www.openstreetmap.org/way/273410173", "what3words": "little.treble.alarming", "upstream": "openstreetmap\u00b6w273410173", "name": "Ayala Health Center", "completeness": "35.29%", "uuid": "69d2d40578244533bc4192c4abea3743", "date_modified": "2015-12-11T10:51:22.924Z", "source": "OpenStreetMap", "version": 2, "type": "hospital"}}, {"geometry": {"type": "Point", "coordinates": [122.5471395, 10.7060614]}, "type": "Feature", "properties": {"source_url": "http://www.openstreetmap.org/node/3313959389", "what3words": "extend.offshore.surfed", "upstream": "openstreetmap\u00b6n3313959389", "name": "Ayala QualiMed Hospital Iloilo", "completeness": "35.29%", "uuid": "32c2591897f94a7f950b6b40e34c068a", "date_modified": "2015-11-17T09:43:57.838Z", "source": "OpenStreetMap", "version": 2, "type": "hospital"}}, {"geometry": {"type": "Point", "coordinates": [122.547367297768, 10.7062663]}, "type": "Feature", "properties": {"source_url": "http://www.openstreetmap.org/way/324713282", "what3words": "riders.places.funnels", "upstream": "openstreetmap\u00b6w324713282", "name": "Ayala QualiMed Hospital Iloilo", "completeness": "41.18%", "uuid": "00482436af9a4dce94c59b1e12290b2a", "date_modified": "2015-12-11T10:51:22.924Z", "source": "OpenStreetMap", "version": 2, "physical-address": "Don Nonato Pison Avenue, Iloilo City, 5000", "type": "hospital"}}, {"geometry": {"type": "Point", "coordinates": [120.9580669, 14.7384585]}, "type": "Feature", "properties": {"source_url": "http://www.openstreetmap.org/node/589717017", "what3words": "present.shops.spreads", "upstream": "openstreetmap\u00b6n589717017", "name": "B A Hospital", "completeness": "35.29%", "uuid": "76dd77320ac345729e3aaf1b71946d21", "date_modified": "2015-11-17T09:43:57.838Z", "source": "OpenStreetMap", "version": 2, "type": "hospital"}}, {"geometry": {"type": "Point", "coordinates": [120.5937933, 13.2246238]}, "type": "Feature", "properties": {"source_url": "http://www.openstreetmap.org/node/4437055383", "what3words": "sooner.abides.gurgles", "upstream": "OpenStreetMap\u00b6n4437055383", "name": "BBraun Dialysis Center", "completeness": "29.41%", "uuid": "085733a11f534d01a9f2d27a6080f1f6", "date_modified": "2016-10-07T23:37:39Z", "source": "OpenStreetMap", "version": 2, "type": "clinic"}}, {"geometry": {"type": "Point", "coordinates": [123.1947952, 13.6213125]}, "type": "Feature", "properties": {"source_url": "http://www.openstreetmap.org/node/4545731097", "what3words": "tenses.cobras.chief", "upstream": "OpenStreetMap\u00b6n4545731097", "name": "BCDC Hospital, BCDC Hospital", "completeness": "29.41%", "uuid": "53ac2088d8ee43509ee66c5c9a25d8ed", "date_modified": "2016-12-09T01:43:10Z", "source": "OpenStreetMap", "version": 2, "type": "hospital"}}, {"geometry": {"type": "Point", "coordinates": [123.1948452, 13.6213378]}, "type": "Feature", "properties": {"source_url": "http://www.openstreetmap.org/node/4537718690", "what3words": "dollars.probe.explains", "upstream": "OpenStreetMap\u00b6n4537718690", "name": "BCDC, BCDC", "completeness": "29.41%", "uuid": "3133ebda68bf48c4a4c159bba62802da", "date_modified": "2016-12-04T13:39:05Z", "source": "OpenStreetMap", "version": 2, "type": "clinic"}}, {"geometry": {"type": "Point", "coordinates": [121.0707468, 14.5663336]}, "type": "Feature", "properties": {"source_url": "http://www.openstreetmap.org/node/1983704725", "what3words": "slid.firms.notes", "upstream": "openstreetmap\u00b6n1983704725", "name": "BDM Diagnostic Center", "completeness": "35.29%", "uuid": "dda22d4900184f98989034597a8624c9", "date_modified": "2015-11-17T09:43:57.838Z", "source": "OpenStreetMap", "version": 2, "type": "hospital"}}, {"geometry": {"type": "Point", "coordinates": [120.9856816, 14.4324697]}, "type": "Feature", "properties": {"source_url": "http://www.openstreetmap.org/way/273411294", "what3words": "nests.sober.tidying", "upstream": "openstreetmap\u00b6w273411294", "name": "BF Carnival Health Center", "completeness": "35.29%", "uuid": "6d4127dd344a40d7a5ee9495d393bcda", "date_modified": "2015-12-11T10:51:22.924Z", "source": "OpenStreetMap", "version": 2, "type": "hospital"}}, {"geometry": {"type": "Point", "coordinates": [120.9917013, 14.4423955]}, "type": "Feature", "properties": {"source_url": "http://www.openstreetmap.org/node/1728914773", "what3words": "markets.publish.rocker", "upstream": "openstreetmap\u00b6n1728914773", "name": "BF Maternity Clinic", "completeness": "35.29%", "uuid": "eca1322d14c74dc1b4be36d62a4d8298", "date_modified": "2015-11-17T09:43:57.838Z", "source": "OpenStreetMap", "version": 2, "type": "hospital"}}, {"geometry": {"type": "Point", "coordinates": [120.3428904, 16.0470395]}, "type": "Feature", "properties": {"source_url": "http://www.openstreetmap.org/node/3949682879", "what3words": "next.park.diet", "upstream": "OpenStreetMap\u00b6n3949682879", "name": "BMC Medical and Dental Clinic", "completeness": "29.41%", "uuid": "0ead8ba5c41e4cf28dc9b43adb3436fa", "date_modified": "2016-01-16T10:36:21Z", "source": "OpenStreetMap", "version": 2, "type": "clinic"}}, {"geometry": {"type": "Point", "coordinates": [122.079264082006, 6.90553735]}, "type": "Feature", "properties": {"source_url": "http://www.openstreetmap.org/way/273659071", "what3words": "dance.themes.propose", "upstream": "openstreetmap\u00b6w273659071", "name": "BP Diagnostic & Clinical Laboratory", "completeness": "41.18%", "uuid": "aa84e20ab8be4ffc8e949ff6cfc4d384", "date_modified": "2015-12-11T10:51:22.924Z", "source": "OpenStreetMap", "version": 2, "physical-address": "Pilar, Zamboanga City", "type": "clinic"}}, {"geometry": {"type": "Point", "coordinates": [121.0673558, 13.7661722]}, "type": "Feature", "properties": {"source_url": "http://www.openstreetmap.org/node/903719674", "what3words": "reduce.become.freezing", "upstream": "openstreetmap\u00b6n903719674", "name": "BRH", "completeness": "35.29%", "uuid": "77d5afd69b5c47a4a811f65102b18f3c", "date_modified": "2015-11-17T09:43:57.838Z", "source": "OpenStreetMap", "version": 2, "type": "hospital"}}, {"geometry": {"type": "Point", "coordinates": [124.844804785451, 11.42376835]}, "type": "Feature", "properties": {"source_url": "http://www.openstreetmap.org/way/247536154", "what3words": "envisage.amazement.highflying", "upstream": "openstreetmap\u00b6w247536154", "name": "Babatngon Clinic", "completeness": "35.29%", "uuid": "2daaaaa234434f2c9c55919f0e9cecfd", "date_modified": "2015-12-11T10:51:22.924Z", "source": "OpenStreetMap", "version": 2, "type": "hospital"}}, {"geometry": {"type": "Point", "coordinates": [120.612714362173, 18.25698095]}, "type": "Feature", "properties": {"source_url": "http://www.openstreetmap.org/way/446029438", "what3words": "free.reviewed.they", "upstream": "OpenStreetMap\u00b6w446029438", "name": "Bacarra Medical Center", "completeness": "35.29%", "uuid": "6ec8d8ddee174caaa0f7076dbd81fda5", "date_modified": "2016-10-06T03:57:11Z", "source": "OpenStreetMap", "version": 2, "physical-address": "Bacarra, 2916", "type": "hospital"}}, {"geometry": {"type": "Point", "coordinates": [120.3506525, 16.7255299]}, "type": "Feature", "properties": {"source_url": "http://www.openstreetmap.org/node/2377987422", "what3words": "outward.trancelike.retracts", "upstream": "openstreetmap\u00b6n2377987422", "name": "Bacnotan District Hospital", "completeness": "35.29%", "uuid": "37a2d6ef97a4449696dbbb2e8879b7e9", "date_modified": "2015-11-17T09:43:57.838Z", "source": "OpenStreetMap", "version": 2, "type": "hospital"}}, {"geometry": {"type": "Point", "coordinates": [122.949482552987, 10.6475459]}, "type": "Feature", "properties": {"source_url": "http://www.openstreetmap.org/way/158171506", "what3words": "jotting.swinging.pumps", "upstream": "openstreetmap\u00b6w158171506", "name": "Bacolod Sanitarium and Hospital", "completeness": "35.29%", "uuid": "15d06df7ae89430ebe2160c56c00cab1", "date_modified": "2015-12-11T10:51:22.924Z", "source": "OpenStreetMap", "version": 2, "type": "hospital"}}, {"geometry": {"type": "Point", "coordinates": [120.947141005334, 14.4413492]}, "type": "Feature", "properties": {"source_url": "http://www.openstreetmap.org/way/456859394", "what3words": "advice.erupted.headline", "upstream": "OpenStreetMap\u00b6w456859394", "name": "Bacoor District Hospital", "completeness": "29.41%", "uuid": "8fd6d5a294de49ba80b2a1b190ccc810", "date_modified": "2016-11-30T23:11:36Z", "source": "OpenStreetMap", "version": 2, "type": "hospital"}}, {"geometry": {"type": "Point", "coordinates": [120.967326194411, 14.4199116]}, "type": "Feature", "properties": {"source_url": "http://www.openstreetmap.org/way/320614621", "what3words": "rise.sweeten.sobered", "upstream": "openstreetmap\u00b6w320614621", "name": "Bacoor Doctors Medical Center", "completeness": "35.29%", "uuid": "6de082a05fa74cbf98b3ee1b0b13e087", "date_modified": "2015-12-11T10:51:22.924Z", "source": "OpenStreetMap", "version": 2, "type": "hospital"}}, {"geometry": {"type": "Point", "coordinates": [120.967618871881, 14.42017765]}, "type": "Feature", "properties": {"source_url": "http://www.openstreetmap.org/way/416632976", "what3words": "hippy.suitcase.protests", "upstream": "OpenStreetMap\u00b6w416632976", "name": "Bacoor Doctors Medical Center", "completeness": "29.41%", "uuid": "1249c162f9f348f5919b18803c075879", "date_modified": "2016-05-09T04:02:16Z", "source": "OpenStreetMap", "version": 2, "type": "hospital"}}, {"geometry": {"type": "Point", "coordinates": [121.0052375, 14.6767411]}, "type": "Feature", "properties": {"source_url": "http://www.openstreetmap.org/node/255071258", "what3words": "slipping.systems.august", "upstream": "openstreetmap\u00b6n255071258", "name": "Baesa Advent Polyclinic And General Hospital", "completeness": "35.29%", "uuid": "6e2ef4393a814b8c8d83dd858fa45614", "date_modified": "2015-11-17T09:43:57.838Z", "source": "OpenStreetMap", "version": 2, "type": "hospital"}}, {"geometry": {"type": "Point", "coordinates": [120.401059030965, 14.6069177]}, "type": "Feature", "properties": {"source_url": "http://www.openstreetmap.org/way/225518929", "what3words": "blister.upstage.intended", "upstream": "openstreetmap\u00b6w225518929", "name": "Bagac Medical Health Center", "completeness": "35.29%", "uuid": "59a2e62a2e2a4fd79b01375d569416a9", "date_modified": "2015-12-11T10:51:22.924Z", "source": "OpenStreetMap", "version": 2, "type": "hospital"}}, {"geometry": {"type": "Point", "coordinates": [123.2936879, 9.2998277]}, "type": "Feature", "properties": {"source_url": "http://www.openstreetmap.org/node/3707576997", "what3words": "aimless.stays.shrimps", "upstream": "openstreetmap\u00b6n3707576997", "name": "Bagacay Health Center", "completeness": "35.29%", "uuid": "791e1754d53e4db8808243a55a88bb6e", "date_modified": "2015-11-17T09:43:57.838Z", "source": "OpenStreetMap", "version": 2, "type": "clinic"}}, {"geometry": {"type": "Point", "coordinates": [121.0308642, 14.6965036]}, "type": "Feature", "properties": {"source_url": "http://www.openstreetmap.org/node/4523796390", "what3words": "pouting.animals.inkjet", "upstream": "OpenStreetMap\u00b6n4523796390", "name": "Bagbag health center, Bagbag health center", "completeness": "29.41%", "uuid": "e5e0870ef6b64abebfeef59435c5b923", "date_modified": "2016-11-26T19:46:26Z", "source": "OpenStreetMap", "version": 2, "type": "clinic"}}, {"geometry": {"type": "Point", "coordinates": [121.005167, 14.7187774]}, "type": "Feature", "properties": {"source_url": "http://www.openstreetmap.org/node/255070486", "what3words": "boring.spooked.mini", "upstream": "openstreetmap\u00b6n255070486", "name": "Bagbaguin Family Hospital", "completeness": "35.29%", "uuid": "5bf95be86398470a83ed1a4e6d6f56eb", "date_modified": "2015-11-17T09:43:57.838Z", "source": "OpenStreetMap", "version": 2, "type": "hospital"}}, {"geometry": {"type": "Point", "coordinates": [122.847309877688, 10.53549955]}, "type": "Feature", "properties": {"source_url": "http://www.openstreetmap.org/way/308832184", "what3words": "managers.measures.diamonds", "upstream": "openstreetmap\u00b6w308832184", "name": "Bago City Hospital", "completeness": "35.29%", "uuid": "e895d43a28184b6ba1645be8e2bd4a05", "date_modified": "2015-12-11T10:51:22.924Z", "source": "OpenStreetMap", "version": 2, "type": "hospital"}}, {"geometry": {"type": "Point", "coordinates": [121.070822376866, 14.5619015]}, "type": "Feature", "properties": {"source_url": "http://www.openstreetmap.org/way/273211761", "what3words": "puzzles.wizard.baking", "upstream": "openstreetmap\u00b6w273211761", "name": "Bagong Ilog Health Center", "completeness": "35.29%", "uuid": "b87a02486bc54435809c9e773fd6dcd5", "date_modified": "2015-12-11T10:51:22.924Z", "source": "OpenStreetMap", "version": 2, "type": "hospital"}}, {"geometry": {"type": "Point", "coordinates": [121.0730015, 14.56004055]}, "type": "Feature", "properties": {"source_url": "http://www.openstreetmap.org/way/273211554", "what3words": "deputy.retrain.goes", "upstream": "openstreetmap\u00b6w273211554", "name": "Bagong Katipunan Health Center", "completeness": "35.29%", "uuid": "a72ebda1d0b147a3a424fed605618142", "date_modified": "2015-12-11T10:51:22.924Z", "source": "OpenStreetMap", "version": 2, "type": "hospital"}}, {"geometry": {"type": "Point", "coordinates": [125.407247, 7.1789518]}, "type": "Feature", "properties": {"source_url": "http://www.openstreetmap.org/node/1233280678", "what3words": "adopting.diction.teacher", "upstream": "openstreetmap\u00b6n1233280678", "name": "Baguio Community Medical Hospital", "completeness": "35.29%", "uuid": "113b2e3a5fc54e81b0e5ed9723dde953", "date_modified": "2015-11-17T09:43:57.838Z", "source": "OpenStreetMap", "version": 2, "type": "hospital"}}, {"geometry": {"type": "Point", "coordinates": [120.595676070866, 16.40101685]}, "type": "Feature", "properties": {"source_url": "http://www.openstreetmap.org/way/151352599", "what3words": "memory.fired.swelling", "upstream": "openstreetmap\u00b6w151352599", "name": "Baguio General Hospital", "completeness": "41.18%", "uuid": "4221e1711841487bb5760cc2f5157804", "date_modified": "2015-12-11T10:51:22.924Z", "source": "OpenStreetMap", "version": 2, "physical-address": "Baguio, 2600", "type": "hospital"}}, {"geometry": {"type": "Point", "coordinates": [120.596592305382, 16.4203654]}, "type": "Feature", "properties": {"source_url": "http://www.openstreetmap.org/way/191059644", "what3words": "curious.taxi.blazers", "upstream": "openstreetmap\u00b6w191059644", "name": "Baguio Health Center", "completeness": "41.18%", "uuid": "fa3fc689a40c4e669c7cbea83bedaf1a", "date_modified": "2015-12-11T10:51:22.924Z", "source": "OpenStreetMap", "version": 2, "physical-address": "New Lucban Road, Baguio, 2600", "type": "hospital"}}, {"geometry": {"type": "Point", "coordinates": [120.597462872993, 16.4021569]}, "type": "Feature", "properties": {"source_url": "http://www.openstreetmap.org/way/190597321", "what3words": "remains.bonds.fade", "upstream": "openstreetmap\u00b6w190597321", "name": "Baguio Medical Center", "completeness": "41.18%", "uuid": "8a00675083824169ada91ae0969192a1", "date_modified": "2015-12-11T10:51:22.924Z", "source": "OpenStreetMap", "version": 2, "physical-address": "Kennon Road, Baguio, 2600", "type": "hospital"}}, {"geometry": {"type": "Point", "coordinates": [123.781615940018, 11.1860293]}, "type": "Feature", "properties": {"source_url": "http://www.openstreetmap.org/way/310330542", "what3words": "milking.regress.custom", "upstream": "openstreetmap\u00b6w310330542", "name": "Baigad Health Center", "completeness": "35.29%", "uuid": "6b0fe54804ea41cb9cea3fca30cb4d53", "date_modified": "2015-12-11T10:51:22.924Z", "source": "OpenStreetMap", "version": 2, "type": "clinic"}}, {"geometry": {"type": "Point", "coordinates": [122.827180982117, 11.45323655]}, "type": "Feature", "properties": {"source_url": "http://www.openstreetmap.org/way/246877187", "what3words": "motions.gentrified.sprains", "upstream": "openstreetmap\u00b6w246877187", "name": "Bailan District Hospital", "completeness": "35.29%", "uuid": "1953fc5a56f94830a654cc0705654dec", "date_modified": "2015-12-11T10:51:22.924Z", "source": "OpenStreetMap", "version": 2, "type": "hospital"}}, {"geometry": {"type": "Point", "coordinates": [120.904276348135, 14.81866155]}, "type": "Feature", "properties": {"source_url": "http://www.openstreetmap.org/way/115960451", "what3words": "dressy.rising.test", "upstream": "openstreetmap\u00b6w115960451", "name": "Balagtas Doctors", "completeness": "35.29%", "uuid": "7a6adb2fd78e435b8b65645a0bdfadcd", "date_modified": "2015-12-11T10:51:22.924Z", "source": "OpenStreetMap", "version": 2, "type": "hospital"}}, {"geometry": {"type": "Point", "coordinates": [120.973963557313, 14.4609715]}, "type": "Feature", "properties": {"source_url": "http://www.openstreetmap.org/way/273426127", "what3words": "penned.inferior.labels", "upstream": "openstreetmap\u00b6w273426127", "name": "Balagtas Health Center", "completeness": "35.29%", "uuid": "c196560df66d4d95a13cc6dae153833a", "date_modified": "2015-12-11T10:51:22.924Z", "source": "OpenStreetMap", "version": 2, "type": "hospital"}}, {"geometry": {"type": "Point", "coordinates": [120.973361994868, 14.21914285]}, "type": "Feature", "properties": {"source_url": "http://www.openstreetmap.org/way/117913638", "what3words": "absolute.mouthing.unpeeled", "upstream": "openstreetmap\u00b6w117913638", "name": "Balalta Hospital", "completeness": "35.29%", "uuid": "f7ad73f0fa5540cf90c26e87cacbc23c", "date_modified": "2015-12-11T10:51:22.924Z", "source": "OpenStreetMap", "version": 2, "type": "hospital"}}, {"geometry": {"type": "Point", "coordinates": [120.669738555178, 15.21661965]}, "type": "Feature", "properties": {"source_url": "http://www.openstreetmap.org/way/262312294", "what3words": "godparent.hyphen.expects", "upstream": "openstreetmap\u00b6w262312294", "name": "Balitucan Hospital", "completeness": "35.29%", "uuid": "ac8cc5281a564bbd92a16487e689f89d", "date_modified": "2015-12-11T10:51:22.924Z", "source": "OpenStreetMap", "version": 2, "type": "hospital"}}, {"geometry": {"type": "Point", "coordinates": [120.9135505, 14.9695147]}, "type": "Feature", "properties": {"source_url": "http://www.openstreetmap.org/node/1452083112", "what3words": "brands.buzz.hostels", "upstream": "openstreetmap\u00b6n1452083112", "name": "Baliuag District Hospital", "completeness": "35.29%", "uuid": "0571cde8688040519091542ffc503036", "date_modified": "2015-11-17T09:43:57.838Z", "source": "OpenStreetMap", "version": 2, "type": "hospital"}}, {"geometry": {"type": "Point", "coordinates": [121.501186215749, 18.4174023]}, "type": "Feature", "properties": {"source_url": "http://www.openstreetmap.org/way/249383884", "what3words": "diluting.magistrates.anomalies", "upstream": "openstreetmap\u00b6w249383884", "name": "Ballesteros District Hospital", "completeness": "35.29%", "uuid": "6542fe2921c54dec904b0c02499003bc", "date_modified": "2015-12-11T10:51:22.924Z", "source": "OpenStreetMap", "version": 2, "type": "hospital"}}, {"geometry": {"type": "Point", "coordinates": [123.3873392, 7.8340783]}, "type": "Feature", "properties": {"source_url": "http://www.openstreetmap.org/node/4362317492", "what3words": "filer.overburden.blackouts", "upstream": "OpenStreetMap\u00b6n4362317492", "name": "Baloyboan Health Center", "completeness": "35.29%", "uuid": "f33e1b25aeb641a8ad9c1bf617e2201e", "date_modified": "2016-08-23T05:14:42Z", "source": "OpenStreetMap", "version": 2, "physical-address": "Purok Kamatis", "type": "clinic"}}, {"geometry": {"type": "Point", "coordinates": [125.216574701038, 6.12495495]}, "type": "Feature", "properties": {"source_url": "http://www.openstreetmap.org/way/471477054", "what3words": "occupy.edicts.fiction", "upstream": "OpenStreetMap\u00b6w471477054", "name": "Baluan Rural Health Center", "completeness": "35.29%", "uuid": "bb64c6e297c94f968e6d055ed4e5c370", "date_modified": "2017-02-02T12:21:05Z", "source": "OpenStreetMap", "version": 2, "physical-address": "General Santos City, 9500", "type": "hospital"}}, {"geometry": {"type": "Point", "coordinates": [121.099652185911, 16.3702423]}, "type": "Feature", "properties": {"source_url": "http://www.openstreetmap.org/way/241130133", "what3words": "implode.shipbuilding.yardage", "upstream": "openstreetmap\u00b6w241130133", "name": "Bambang General Hospital", "completeness": "35.29%", "uuid": "4f6d6289aab344788a682ec5b4d549aa", "date_modified": "2015-12-11T10:51:22.924Z", "source": "OpenStreetMap", "version": 2, "type": "hospital"}}, {"geometry": {"type": "Point", "coordinates": [121.069456, 14.52661775]}, "type": "Feature", "properties": {"source_url": "http://www.openstreetmap.org/way/273216063", "what3words": "assume.cloth.playoffs", "upstream": "openstreetmap\u00b6w273216063", "name": "Bambang Health Center", "completeness": "35.29%", "uuid": "f99066026f864a8a908188dcd92f2189", "date_modified": "2015-12-11T10:51:22.924Z", "source": "OpenStreetMap", "version": 2, "type": "hospital"}}, {"geometry": {"type": "Point", "coordinates": [120.816711806062, 15.08995525]}, "type": "Feature", "properties": {"source_url": "http://www.openstreetmap.org/way/241596052", "what3words": "observant.concur.leasehold", "upstream": "openstreetmap\u00b6w241596052", "name": "Bambang Health Center", "completeness": "35.29%", "uuid": "3ad403a877b1471f8cec0d57bee0eb25", "date_modified": "2015-12-11T10:51:22.924Z", "source": "OpenStreetMap", "version": 2, "type": "clinic"}}, {"geometry": {"type": "Point", "coordinates": [121.062287519273, 16.9094819]}, "type": "Feature", "properties": {"source_url": "http://www.openstreetmap.org/way/245020663", "what3words": "disdaining.windproof.divers", "upstream": "OpenStreetMap\u00b6w245020663", "name": "Banaue Medical Clinic", "completeness": "29.41%", "uuid": "32c64151813949efa5cede58cd69d40b", "date_modified": "2015-12-09T01:47:16Z", "source": "OpenStreetMap", "version": 2, "type": "clinic"}}, {"geometry": {"type": "Point", "coordinates": [120.630348419441, 14.9559249]}, "type": "Feature", "properties": {"source_url": "http://www.openstreetmap.org/way/244793162", "what3words": "paths.closed.clearing", "upstream": "openstreetmap\u00b6w244793162", "name": "Bancal Health Center", "completeness": "35.29%", "uuid": "2e2d730060524f48a912c10a8c134a61", "date_modified": "2015-12-11T10:51:22.924Z", "source": "OpenStreetMap", "version": 2, "type": "clinic"}}, {"geometry": {"type": "Point", "coordinates": [123.15873935, 11.557369]}, "type": "Feature", "properties": {"source_url": "http://www.openstreetmap.org/way/245983803", "what3words": "throaty.adjusted.jukebox", "upstream": "openstreetmap\u00b6w245983803", "name": "Bancal Health Center", "completeness": "35.29%", "uuid": "2c3d890055554ba9bdd909cba6cb5266", "date_modified": "2015-12-11T10:51:22.924Z", "source": "OpenStreetMap", "version": 2, "type": "hospital"}}, {"geometry": {"type": "Point", "coordinates": [121.0093536, 14.5472813]}, "type": "Feature", "properties": {"source_url": "http://www.openstreetmap.org/node/921903179", "what3words": "pumpkin.media.traps", "upstream": "openstreetmap\u00b6n921903179", "name": "Bangkal Health Center", "completeness": "35.29%", "uuid": "a997af98844b46d9addf6e4514774168", "date_modified": "2015-11-17T09:43:57.838Z", "source": "OpenStreetMap", "version": 2, "type": "hospital"}}, {"geometry": {"type": "Point", "coordinates": [120.761980332664, 18.53327945]}, "type": "Feature", "properties": {"source_url": "http://www.openstreetmap.org/way/267446337", "what3words": "deplorable.acquittals.casket", "upstream": "openstreetmap\u00b6w267446337", "name": "Bangui District Hospital", "completeness": "41.18%", "uuid": "8b21905cb48e43ab9b38c8f3e0945a45", "date_modified": "2015-12-11T10:51:22.924Z", "source": "OpenStreetMap", "version": 2, "physical-address": "Bangui", "type": "hospital"}}, {"geometry": {"type": "Point", "coordinates": [119.8651111, 16.21311045]}, "type": "Feature", "properties": {"source_url": "http://www.openstreetmap.org/way/320333832", "what3words": "asks.furthering.readmitted", "upstream": "openstreetmap\u00b6w320333832", "name": "Bani Rural Health Unit", "completeness": "41.18%", "uuid": "d73f03c088b6421f937d0a2a46ade039", "date_modified": "2015-12-11T10:51:22.924Z", "source": "OpenStreetMap", "version": 2, "physical-address": "Bani, 2407", "type": "hospital"}}, {"geometry": {"type": "Point", "coordinates": [123.731065069212, 11.17371675]}, "type": "Feature", "properties": {"source_url": "http://www.openstreetmap.org/way/245902309", "what3words": "gardeners.skims.foundering", "upstream": "openstreetmap\u00b6w245902309", "name": "Bantayan District Hospital", "completeness": "41.18%", "uuid": "dac4f7580f934f09980119a48a2ea861", "date_modified": "2015-12-11T10:51:22.924Z", "source": "OpenStreetMap", "version": 2, "physical-address": "Village Road", "type": "hospital"}}, {"geometry": {"type": "Point", "coordinates": [123.731231073492, 11.17203625]}, "type": "Feature", "properties": {"source_url": "http://www.openstreetmap.org/way/246081860", "what3words": "continued.rekindle.inculcated", "upstream": "openstreetmap\u00b6w246081860", "name": "Bantayan District Hospital", "completeness": "35.29%", "uuid": "f310c07b0e054498bcb79d615bf7bc3c", "date_modified": "2015-12-11T10:51:22.924Z", "source": "OpenStreetMap", "version": 2, "type": "hospital"}}, {"geometry": {"type": "Point", "coordinates": [120.714241, 15.4492904]}, "type": "Feature", "properties": {"source_url": "http://www.openstreetmap.org/node/1679829983", "what3words": "surpass.outranks.forgery", "upstream": "openstreetmap\u00b6n1679829983", "name": "Baraangay Caramutan Health Center", "completeness": "35.29%", "uuid": "c456a1d038e9479c91c49c5f6b003997", "date_modified": "2015-11-17T09:43:57.838Z", "source": "OpenStreetMap", "version": 2, "type": "hospital"}}, {"geometry": {"type": "Point", "coordinates": [120.5955585, 13.2215438]}, "type": "Feature", "properties": {"source_url": "http://www.openstreetmap.org/way/460554799", "what3words": "pirate.uncannily.alleviates", "upstream": "OpenStreetMap\u00b6w460554799", "name": "Barangay 2 Health Station", "completeness": "29.41%", "uuid": "226f0b8bd6ec45f381caa351c20d1ed8", "date_modified": "2016-12-19T14:12:27Z", "source": "OpenStreetMap", "version": 2, "type": "clinic"}}, {"geometry": {"type": "Point", "coordinates": [121.029020563305, 14.50841995]}, "type": "Feature", "properties": {"source_url": "http://www.openstreetmap.org/way/276915481", "what3words": "exists.jams.possibly", "upstream": "OpenStreetMap\u00b6w276915481", "name": "Barangay 201 Health Center", "completeness": "35.29%", "uuid": "3f2fec67bffd40528ae9db030299092e", "date_modified": "2016-08-31T09:27:41Z", "source": "OpenStreetMap", "version": 2, "physical-address": "Alley 13, Pasay", "type": "clinic"}}, {"geometry": {"type": "Point", "coordinates": [125.599475195399, 7.0597832]}, "type": "Feature", "properties": {"source_url": "http://www.openstreetmap.org/way/315695368", "what3words": "pays.wades.embodied", "upstream": "openstreetmap\u00b6w315695368", "name": "Barangay 76-A Health Center", "completeness": "35.29%", "uuid": "90bfff433f7e40d79625275a4b4aeb1a", "date_modified": "2015-12-11T10:51:22.924Z", "source": "OpenStreetMap", "version": 2, "type": "clinic"}}, {"geometry": {"type": "Point", "coordinates": [124.7376089053, 8.4890855]}, "type": "Feature", "properties": {"source_url": "http://www.openstreetmap.org/way/315695381", "what3words": "loss.readily.forgiven", "upstream": "openstreetmap\u00b6w315695381", "name": "Barangay Agusan Health Center", "completeness": "35.29%", "uuid": "2bda83fef85c42c399f5f6f466416095", "date_modified": "2015-12-11T10:51:22.924Z", "source": "OpenStreetMap", "version": 2, "type": "hospital"}}, {"geometry": {"type": "Point", "coordinates": [123.8818025, 10.2895124]}, "type": "Feature", "properties": {"source_url": "http://www.openstreetmap.org/node/4340937722", "what3words": "eggs.liberty.shut", "upstream": "OpenStreetMap\u00b6n4340937722", "name": "Barangay Alaska Mambaling Health Center", "completeness": "29.41%", "uuid": "a4256f02e6124d2c9662cf6a9930b756", "date_modified": "2016-08-08T11:15:57Z", "source": "OpenStreetMap", "version": 2, "type": "clinic"}}, {"geometry": {"type": "Point", "coordinates": [123.9500679, 10.3546013]}, "type": "Feature", "properties": {"source_url": "http://www.openstreetmap.org/node/4552061446", "what3words": "historic.shocks.counters", "upstream": "OpenStreetMap\u00b6n4552061446", "name": "Barangay Basak Health Center", "completeness": "35.29%", "uuid": "db85de62c7ab42fc930a2d09396ff927", "date_modified": "2017-01-27T04:06:20Z", "source": "OpenStreetMap", "version": 2, "physical-address": "National Highway, Mandaue City, 6014", "type": "clinic"}}, {"geometry": {"type": "Point", "coordinates": [121.0230377, 14.5604182]}, "type": "Feature", "properties": {"source_url": "http://www.openstreetmap.org/node/1750310911", "what3words": "linked.evolves.fraction", "upstream": "openstreetmap\u00b6n1750310911", "name": "Barangay Bel-Air Health Office", "completeness": "35.29%", "uuid": "feef222e21054f7aa770a1068875864f", "date_modified": "2015-11-17T09:43:57.838Z", "source": "OpenStreetMap", "version": 2, "type": "clinic"}}, {"geometry": {"type": "Point", "coordinates": [123.8517666, 10.2748354]}, "type": "Feature", "properties": {"source_url": "http://www.openstreetmap.org/node/4340936047", "what3words": "lively.words.strength", "upstream": "OpenStreetMap\u00b6n4340936047", "name": "Barangay Bulacao Health Center", "completeness": "29.41%", "uuid": "1d57ebf776554f3db7df010fe5bcc737", "date_modified": "2016-08-08T11:20:11Z", "source": "OpenStreetMap", "version": 2, "type": "clinic"}}, {"geometry": {"type": "Point", "coordinates": [123.275704, 9.3030786]}, "type": "Feature", "properties": {"source_url": "http://www.openstreetmap.org/node/3707450526", "what3words": "mushroom.flies.perkily", "upstream": "openstreetmap\u00b6n3707450526", "name": "Barangay Cadawinonan Health Center", "completeness": "35.29%", "uuid": "47422ae7513b47298ae1cffb395a638a", "date_modified": "2015-11-17T09:43:57.838Z", "source": "OpenStreetMap", "version": 2, "type": "hospital"}}, {"geometry": {"type": "Point", "coordinates": [124.033329876025, 11.1758347]}, "type": "Feature", "properties": {"source_url": "http://www.openstreetmap.org/way/423747353", "what3words": "dismantled.interposed.suspended", "upstream": "OpenStreetMap\u00b6w423747353", "name": "Barangay Calape Health Center", "completeness": "29.41%", "uuid": "e5d7be38096d468594739c97fa4aae1d", "date_modified": "2016-06-09T05:37:52Z", "source": "OpenStreetMap", "version": 2, "type": "clinic"}}, {"geometry": {"type": "Point", "coordinates": [121.0932123, 14.6218267]}, "type": "Feature", "properties": {"source_url": "http://www.openstreetmap.org/node/671917097", "what3words": "strongly.journals.cafe", "upstream": "openstreetmap\u00b6n671917097", "name": "Barangay Calumpang Health Center", "completeness": "35.29%", "uuid": "dc90194c1023405780ac41ef961a37b8", "date_modified": "2015-11-17T09:43:57.838Z", "source": "OpenStreetMap", "version": 2, "type": "clinic"}}, {"geometry": {"type": "Point", "coordinates": [125.4283519, 7.001489]}, "type": "Feature", "properties": {"source_url": "http://www.openstreetmap.org/way/389006800", "what3words": "quizzing.unlucky.eyedrops", "upstream": "OpenStreetMap\u00b6w389006800", "name": "Barangay Catigan Health Center", "completeness": "29.41%", "uuid": "6afc8291191b425d9089031617675a4e", "date_modified": "2016-01-01T10:56:32Z", "source": "OpenStreetMap", "version": 2, "type": "clinic"}}, {"geometry": {"type": "Point", "coordinates": [125.7206019, 7.0602764]}, "type": "Feature", "properties": {"source_url": "http://www.openstreetmap.org/node/1569288122", "what3words": "resemble.pulled.cobble", "upstream": "openstreetmap\u00b6n1569288122", "name": "Barangay Cawag Health Center", "completeness": "35.29%", "uuid": "eafa4864700d4f03b5a708211a7ea85d", "date_modified": "2015-11-17T09:43:57.838Z", "source": "OpenStreetMap", "version": 2, "type": "clinic"}}, {"geometry": {"type": "Point", "coordinates": [121.3134272, 14.0783956]}, "type": "Feature", "properties": {"source_url": "http://www.openstreetmap.org/node/3012304928", "what3words": "noon.homing.deform", "upstream": "openstreetmap\u00b6n3012304928", "name": "Barangay Del Remedio Health Center", "completeness": "35.29%", "uuid": "87ec2c8e4f624d48b90f9be2facc053a", "date_modified": "2015-11-17T09:43:57.838Z", "source": "OpenStreetMap", "version": 2, "type": "hospital"}}, {"geometry": {"type": "Point", "coordinates": [125.5332028, 7.2900431]}, "type": "Feature", "properties": {"source_url": "http://www.openstreetmap.org/node/1396144482", "what3words": "parole.loiterers.cloying", "upstream": "OpenStreetMap\u00b6n1396144482", "name": "Barangay Fatima Health Center", "completeness": "29.41%", "uuid": "17633f7a86da4b7e9ebf48d4b2f8a3c6", "date_modified": "2016-01-01T09:44:20Z", "source": "OpenStreetMap", "version": 2, "type": "clinic"}}, {"geometry": {"type": "Point", "coordinates": [123.88437751546, 10.32105415]}, "type": "Feature", "properties": {"source_url": "http://www.openstreetmap.org/way/430280496", "what3words": "singers.teeth.less", "upstream": "OpenStreetMap\u00b6w430280496", "name": "Barangay Guadalupe Health Center", "completeness": "35.29%", "uuid": "e81c75c647f7454194d552cf6a6ae433", "date_modified": "2016-07-11T05:11:13Z", "source": "OpenStreetMap", "version": 2, "physical-address": "Cebu City, 6000", "type": "clinic"}}, {"geometry": {"type": "Point", "coordinates": [120.2558177, 11.9241352]}, "type": "Feature", "properties": {"source_url": "http://www.openstreetmap.org/node/3648129501", "what3words": "devolves.bypasses.toolboxes", "upstream": "openstreetmap\u00b6n3648129501", "name": "Barangay Health Center", "completeness": "35.29%", "uuid": "5b7d4534c5d744228aa0e90fd6dd2b37", "date_modified": "2015-11-17T09:43:57.838Z", "source": "OpenStreetMap", "version": 2, "type": "clinic"}}, {"geometry": {"type": "Point", "coordinates": [121.195162, 13.4263777]}, "type": "Feature", "properties": {"source_url": "http://www.openstreetmap.org/node/1804661217", "what3words": "diagonally.miss.platforms", "upstream": "openstreetmap\u00b6n1804661217", "name": "Barangay Health Center", "completeness": "35.29%", "uuid": "df7d374269d54a6fa3e6197a03ad18d4", "date_modified": "2015-11-17T09:43:57.838Z", "source": "OpenStreetMap", "version": 2, "type": "clinic"}}, {"geometry": {"type": "Point", "coordinates": [121.1824825, 13.4162063]}, "type": "Feature", "properties": {"source_url": "http://www.openstreetmap.org/node/1804661213", "what3words": "cultivation.cookers.soak", "upstream": "openstreetmap\u00b6n1804661213", "name": "Barangay Health Center", "completeness": "35.29%", "uuid": "caac4a646c3c4ea990b5b08e5a10f196", "date_modified": "2015-11-17T09:43:57.838Z", "source": "OpenStreetMap", "version": 2, "type": "hospital"}}, {"geometry": {"type": "Point", "coordinates": [120.635804646454, 14.9684649]}, "type": "Feature", "properties": {"source_url": "http://www.openstreetmap.org/way/244794775", "what3words": "lunging.tarred.servants", "upstream": "openstreetmap\u00b6w244794775", "name": "Barangay Health Center", "completeness": "35.29%", "uuid": "f3fa017a072644f4b1275796e031e5d9", "date_modified": "2015-12-11T10:51:22.924Z", "source": "OpenStreetMap", "version": 2, "type": "clinic"}}, {"geometry": {"type": "Point", "coordinates": [123.268782115925, 9.3123103]}, "type": "Feature", "properties": {"source_url": "http://www.openstreetmap.org/way/340670937", "what3words": "applause.thing.shows", "upstream": "openstreetmap\u00b6w340670937", "name": "Barangay Health Center", "completeness": "35.29%", "uuid": "2a149833b2ee4dd788a52f09933699cf", "date_modified": "2015-12-11T10:51:22.924Z", "source": "OpenStreetMap", "version": 2, "type": "clinic"}}, {"geometry": {"type": "Point", "coordinates": [120.2558177, 11.9241352]}, "type": "Feature", "properties": {"source_url": "http://www.openstreetmap.org/node/3648129501", "what3words": "devolves.bypasses.toolboxes", "upstream": "openstreetmap\u00b6n3648129501", "name": "Barangay Health Center", "completeness": "35.29%", "uuid": "5b7d4534c5d744228aa0e90fd6dd2b37", "date_modified": "2015-11-17T09:43:57.838Z", "source": "OpenStreetMap", "version": 2, "type": "clinic"}}, {"geometry": {"type": "Point", "coordinates": [125.14151885, 12.51182955]}, "type": "Feature", "properties": {"source_url": "http://www.openstreetmap.org/way/316072617", "what3words": "preps.rosebushes.truthfulness", "upstream": "OpenStreetMap\u00b6w316072617", "name": "Barangay Health Center of Bangon", "completeness": "29.41%", "uuid": "962d865f20d64f22b2984b3f96baaac9", "date_modified": "2016-04-13T09:33:52Z", "source": "OpenStreetMap", "version": 2, "type": "clinic"}}, {"geometry": {"type": "Point", "coordinates": [125.965669066817, 8.51830885]}, "type": "Feature", "properties": {"source_url": "http://www.openstreetmap.org/way/315695416", "what3words": "badly.valedictorian.plucked", "upstream": "openstreetmap\u00b6w315695416", "name": "Barangay Health center & Birthing Clinic", "completeness": "35.29%", "uuid": "be916070cf374badb08bb5266c164b4c", "date_modified": "2015-12-11T10:51:22.924Z", "source": "OpenStreetMap", "version": 2, "type": "hospital"}}, {"geometry": {"type": "Point", "coordinates": [123.856111869926, 10.26982175]}, "type": "Feature", "properties": {"source_url": "http://www.openstreetmap.org/way/472435812", "what3words": "partied.curious.deaf", "upstream": "OpenStreetMap\u00b6w472435812", "name": "Barangay Inayawan Health Center", "completeness": "29.41%", "uuid": "872d6083d5e64f1cbc7ac80008d896e6", "date_modified": "2017-02-06T02:11:13Z", "source": "OpenStreetMap", "version": 2, "type": "clinic"}}, {"geometry": {"type": "Point", "coordinates": [121.04944395, 14.2985576]},